name,lat,lon,rate,rating,user_ratings_total,kind,category,city,country,theme,price_level,category_main,category_encoded,theme_encoded,city_encoded,country_encoded,price_per_review,log_user_ratings,log_price_per_review,distance_to_city_center,in_center_dynamic,is_religious,is_entertainment,kind_count,name_length,word_count,theme_popularity,city_category_density,user_ratings_relative
"Hôtel de Ville, Place de Grève",48.857208,2.35218,2,2.4,258,"historic,monuments_and_memorials,burial_places,interesting_places,other_burial_places,monuments",railway stations,Paris,FR,culture,2,railway stations,24,1,16,15,0.007751938,5.556828062,0.007722046,0.000608329,1,0,0,6,30,6,592,1,0.0627574
"Jardin des Combattants-de-la-Nueve, Statue d'Étienne Marcel, Étienne Marcel",48.85572,2.352114,1,2.9,56,"cultural,urban_environment,interesting_places,sculptures, urban_environment,gardens_and_parks,cultural,interesting_places",monuments,Paris,FR,nature,1,monuments,18,4,16,15,0.017857143,4.043051268,0.017699577,0.000884192,1,0,0,8,75,8,28,7,0.013621761
"Chapelle dorée of Église Saint-Gervais-Saint-Protais, Church of Saint-Gervais",48.855556,2.354444,3,4.2,1065,"religion,churches,interesting_places,other_churches",churches,Paris,FR,religion,1,churches,6,2,16,15,0.000938967,6.971668605,0.000938526,0.002474969,1,1,0,4,77,8,223,4,0.25905671
"LUMINOR Town Hall, Nouveau Latina",48.858685,2.353654,3,2.5,657,"cultural,cinemas,theatres_and_entertainments,interesting_places",cinemas,Paris,FR,entertainment,2,cinemas,7,3,16,15,0.00304414,6.489204931,0.003039516,0.002541917,1,0,1,4,33,5,105,1,0.159812449
"Saint-Jacques Tower, Square de la Tour Saint-Jacques, Square of Saint-Jacques Tower, Tour Saint-Jacques, Église Saint-Jacques-de-la-Boucherie",48.85798,2.348857,3,4.8,13718,"religion,churches,interesting_places,other_churches, towers,architecture,interesting_places,other_towers, urban_environment,gardens_and_parks,cultural,interesting_places","monuments, towers",Paris,FR,religion,1,monuments,18,2,16,15,7.29E-05,9.526537012,7.29E-05,0.003616635,1,1,0,12,141,15,223,7,3.336845019
"Saint Merry Church, Saint-Merri",48.859081,2.350804,3,3.3,731,"religion,churches,interesting_places,catholic_churches",churches,Paris,FR,religion,1,churches,6,2,16,15,0.001367989,6.595780514,0.001367054,0.002846784,1,1,0,4,31,4,223,4,0.177812634
"Café de la Gare, Essaïon Théâtre, Théâtre Essaïon",48.859734,2.353318,3,3.6,2260,"architecture,historic_architecture,cultural,theatres_and_entertainments,interesting_places,other_theatres,cafes,foods,tourist_facilities,other_buildings_and_structures, cultural,theatres_and_entertainments,interesting_places,other_theatres",theatres,Paris,FR,entertainment,2,theatres,29,3,16,15,0.000884956,7.723562472,0.000884565,0.003327443,1,0,1,14,49,8,105,4,0.549735365
"Maisons Médiévales, Maisons du Moyen Âge",48.855789,2.3569,1,3.9,46,"historic,monuments_and_memorials,burial_places,interesting_places,other_burial_places,monuments",fortresses,Paris,FR,culture,2,fortresses,9,1,16,15,0.043478261,3.850147602,0.042559615,0.004769457,1,0,0,6,40,6,592,1,0.011189304
Le Point Virgule,48.857876,2.356833,3,4.1,2785,"cultural,theatres_and_entertainments,interesting_places,other_theatres",theatres,Paris,FR,entertainment,2,theatres,29,3,16,15,0.000718133,7.932362154,0.000717875,0.004805504,1,0,1,4,16,3,105,4,0.677439377
"Fontaine du Palmier, Petit Châtelet, Place du Châtelet",48.8575,2.347254,3,4.1,2652,"fortifications,historic,interesting_places,castles, fountains,historic,monuments_and_memorials,cultural,urban_environment,interesting_places,sculptures,monuments",monuments,Paris,FR,culture,1,monuments,18,1,16,15,0.000377074,7.883446354,0.000377003,0.005027218,1,0,0,12,54,8,592,7,0.645087694
Le Duc des Lombards,48.859692,2.348605,3,4,1804,"cultural,theatres_and_entertainments,interesting_places,other_theatres",concert hall,Paris,FR,entertainment,3,concert hall,8,3,16,15,0.001662971,7.498315871,0.00166159,0.004741781,1,0,1,4,19,4,105,1,0.438815309
"Charles V clock, Tour de l'Horloge, Tour de l'Horloge du Palais de la Cité",48.856198,2.34627,3,3,616,"other,unclassified_objects,interesting_places,historic_object, towers,architecture,interesting_places,clock_towers",monuments,Paris,FR,culture,1,monuments,18,1,16,15,0.001623377,6.424869024,0.001622061,0.00594361,1,0,0,8,74,14,592,7,0.149839374
"Fontaine de la Vierge, La fontaine de la Vierge",48.852562,2.351384,1,4.1,87,"fountains,historic,monuments_and_memorials,urban_environment,cultural,interesting_places,sculptures,monuments",monuments,Paris,FR,culture,1,monuments,18,1,16,15,0.011494253,4.477336814,0.011428696,0.004119624,1,0,0,8,47,9,592,7,0.021162379
Théâtre du Châtelet,48.857796,2.346263,3,4.1,4633,"theatres_and_entertainments,concert_halls,cultural,interesting_places,music_venues,opera_houses",theatres,Paris,FR,entertainment,2,theatres,29,3,16,15,0.000431686,8.441175705,0.000431593,0.006056268,1,0,1,6,19,3,105,4,1.126957499
Notre-Dame-des-Blancs-Manteaux,48.858955,2.357737,3,2.3,273,"religion,churches,interesting_places,catholic_churches",churches,Paris,FR,religion,1,churches,6,2,16,15,0.003663004,5.613128106,0.003656312,0.006017009,1,1,0,4,30,1,223,4,0.066406086
"Charlemagne et ses leudes, Statue de Charlemagne et ses leudes",48.853096,2.34827,3,1.3,114,"historic,monuments_and_memorials,urban_environment,cultural,interesting_places,sculptures,monuments",sculptures,Paris,FR,culture,2,sculptures,26,1,16,15,0.01754386,4.744932128,0.017391743,0.005265256,1,0,0,7,62,10,592,1,0.027730014
"Tour de l'enceinte de Philippe Auguste, Tower Philippe Auguste",48.859673,2.357033,1,4,10,"architecture,historic_architecture,fortifications,historic,interesting_places,destroyed_objects,other_fortifications",landmark,Paris,FR,culture,1,landmark,15,1,16,15,0.1,2.397895273,0.09531018,0.005727235,1,0,0,7,62,9,592,2,0.002432457
"131 rue Saint-Martin, Paris, Fontaine Maubuée, fontaine Maubuée",48.861065,2.351281,1,2.1,22,"fountains,historic,monuments_and_memorials,urban_environment,cultural,interesting_places,sculptures,monuments, historic_architecture,architecture,interesting_places,other_buildings_and_structures",fountains,Paris,FR,culture,2,fountains,10,1,16,15,0.090909091,3.135494216,0.087011377,0.004558595,1,0,0,12,63,8,592,1,0.005351406
"Deportation Martyrs Memorial, Mémorial des Martyrs de la Déportation",48.851738,2.352366,3,4.6,514,"historic,burial_places,interesting_places,war_memorials",monuments,Paris,FR,culture,1,monuments,18,1,16,15,0.001945525,6.244166901,0.001943635,0.004864833,1,0,0,4,68,9,592,7,0.125028309
Fontaine des Innocents,48.860638,2.348023,3,4.1,1742,"fountains,historic,monuments_and_memorials,urban_environment,cultural,interesting_places,sculptures,monuments",landmark,Paris,FR,culture,1,landmark,15,1,16,15,0.000574053,7.463363046,0.000573888,0.005809714,1,0,0,8,22,3,592,2,0.423734074
Sainte-Chapelle,48.855392,2.344994,3,4.8,43407,"religion,churches,cultural,museums,interesting_places,other_museums,catholic_churches",monuments,Paris,FR,religion,1,monuments,18,2,16,15,2.30E-05,10.67839903,2.30E-05,0.007306552,1,1,0,7,15,1,223,7,10.5585677
Jardin Anne Frank,48.861652,2.355053,3,5,1105,"urban_environment,gardens_and_parks,cultural,interesting_places",gardens,Paris,FR,nature,3,gardens,12,4,16,15,0.002714932,7.008505182,0.002711253,0.005801923,1,0,0,4,17,3,28,1,0.268786539
"Saint-Julien-le-Pauvre, Square René Viviani, Square René-Viviani, Église Saint-Blaise de Paris",48.852075,2.347261,3,4.8,4450,"religion,churches,interesting_places,catholic_churches, religion,churches,interesting_places,other_churches, urban_environment,gardens_and_parks,cultural,interesting_places","churches, fountains",Paris,FR,religion,2,churches,6,2,16,15,0.000449438,8.400884069,0.000449337,0.006698458,1,1,0,12,94,10,223,4,1.082443529
"Saint-Michel, Théâtre de la Huchette",48.853058,2.345377,3,4.7,1416,"cultural,theatres_and_entertainments,interesting_places,other_theatres, railway_stations,industrial_facilities,architecture,historic_architecture,interesting_places,restaurants,foods,tourist_facilities,other_buildings_and_structures",theatres,Paris,FR,entertainment,2,theatres,29,3,16,15,0.001412429,7.25629724,0.001411432,0.007687593,1,0,1,13,36,5,105,4,0.344435963
"Fontana delle Naiadi, Fountain of the Naiads",41.902714,12.496246,1,2.6,36,"fountains,historic,monuments_and_memorials,urban_environment,cultural,interesting_places,sculptures,monuments",sculptures,Rome,IT,culture,2,sculptures,26,1,18,14,0.055555556,3.610917913,0.054067222,0.000176386,1,0,0,8,44,7,592,4,0.002311791
"Obelisco dei Dogali, Obelisk of Dogali",41.902145,12.497461,3,3.2,158,"historic,monuments_and_memorials,urban_environment,cultural,interesting_places,sculptures,monuments",monuments,Rome,IT,culture,1,monuments,18,1,18,14,0.006329114,5.068904202,0.006309169,0.001246895,1,0,0,7,38,6,592,12,0.010146192
"Church of Santa Maria della Vittoria, Cornaro chapel, Ecstasy of Saint Teresa, Fountain of Moses, Santa Maria della Vittoria",41.90463,12.494258,3,4.3,20674,"fountains,historic,monuments_and_memorials,urban_environment,cultural,interesting_places,sculptures,monuments, historic,cultural,urban_environment,monuments_and_memorials,interesting_places,sculptures,monuments, religion,churches,interesting_places,catholic_churches, religion,churches,interesting_places,other_churches","churches, fountains",Rome,IT,religion,2,churches,6,2,18,14,9.67E-05,9.93668052,9.67E-05,0.00281728,1,1,0,23,124,19,223,7,1.327610002
"RomeOperaConcerts, Saint Andrew's Presbyterian Church of Scotland",41.903061,12.491675,1,1.8,38,"religion,churches,interesting_places,other_churches",concert hall,Rome,IT,religion,3,concert hall,8,2,18,14,0.078947368,3.663561646,0.075985907,0.004732203,1,1,0,4,65,7,223,2,0.002440223
"Chiesa di San Carlino alle Quattro Fontane, Four Fountains, Quattro Fontane, Temple of the gens Flavia",41.901936,12.49072,3,4,2778,"fountains,historic,monuments_and_memorials,urban_environment,cultural,interesting_places,sculptures,monuments, religion,other_temples,historic,archaeology,interesting_places,other_archaeological_sites","churches, sculptures",Rome,IT,religion,2,churches,6,2,18,14,0.000719942,7.92984643,0.000719683,0.005745337,1,1,0,14,102,16,223,7,0.178393179
Obelisco Esquilino,41.898174,12.497499,3,3.4,188,"historic,monuments_and_memorials,urban_environment,cultural,interesting_places,sculptures,monuments",landmark,Rome,IT,culture,1,landmark,15,1,18,14,0.005319149,5.241747015,0.005305052,0.004754753,1,0,0,7,18,2,592,6,0.012072685
"Gallerie Nazionali di Arte Antica - Palazzo Barberini, National Gallery of Ancient Art",41.903324,12.489875,3,4.3,6791,"national_museums,cultural,museums,interesting_places,art_galleries",museums,Rome,IT,culture,2,museums,20,1,18,14,0.000294507,8.823500728,0.000294464,0.006546006,1,0,0,5,86,13,592,3,0.436093621
"Gardens of Sallust (Horti Sallustiani), Horti Sallustiani",41.908054,12.496905,3,3.3,245,"historic,urban_environment,gardens_and_parks,archaeology,cultural,interesting_places,other_archaeological_sites",gardens,Rome,IT,nature,3,gardens,12,4,18,14,0.012244898,5.505331536,0.012170536,0.005278214,1,0,0,7,57,7,28,2,0.01573302
"Basilica of Saint Mary Major, Papal Basilica of Saint Mary Major",41.897625,12.49847,3,4.9,40888,"religion,churches,interesting_places,catholic_churches",sculptures,Rome,IT,religion,2,sculptures,26,2,18,14,4.89E-05,10.61861636,4.89E-05,0.005573646,1,1,0,4,64,11,223,4,2.625680457
"Barberini, Multisala Barberini",41.903572,12.489147,2,4.1,2363,"cultural,cinemas,theatres_and_entertainments,interesting_places",cinemas,Rome,IT,entertainment,2,cinemas,7,3,18,14,0.000846382,7.768110379,0.000846024,0.00729397,1,0,1,4,30,3,105,2,0.15174337
"Chiesa di Sant'Andrea al Quirinale, Church of St Andrew on the Quirinal",41.900673,12.489352,3,3.9,896,"religion,churches,interesting_places,catholic_churches",churches,Rome,IT,religion,1,churches,6,2,18,14,0.001116071,6.799055862,0.001115449,0.007361959,1,1,0,4,71,12,223,7,0.057537901
Fountain of the Bees,41.904297,12.488767,3,4.2,157,"fountains,historic,monuments_and_memorials,urban_environment,cultural,interesting_places,sculptures,monuments",public sculpture,Rome,IT,culture,1,public sculpture,23,1,18,14,0.006369427,5.062595033,0.006349228,0.007778412,1,0,0,8,20,4,592,3,0.010081976
"Fontana del Tritone, Triton Fountain",41.903664,12.488482,3,5,4978,"fountains,historic,monuments_and_memorials,urban_environment,cultural,interesting_places,sculptures,monuments",public sculpture,Rome,IT,culture,1,public sculpture,23,1,18,14,0.000200884,8.512984347,0.000200864,0.007965,1,0,0,8,36,5,592,3,0.319669275
"Colonna della Pace a Santa Maria Maggiore, Column of Peace, Fontana di piazza Santa Maria Maggiore",41.897041,12.499359,3,3.4,268,"fountains,historic,monuments_and_memorials,urban_environment,cultural,interesting_places,sculptures,monuments",monuments,Rome,IT,culture,1,monuments,18,1,18,14,0.003731343,5.59471138,0.003724399,0.006474702,1,0,0,8,98,16,592,12,0.017209997
"Museo e Cripta dei Cappuccini, Santa Maria Immacolata a Via Veneto",41.905025,12.488615,3,4.8,3768,"religion,churches,interesting_places,catholic_churches",museums,Rome,IT,religion,2,museums,20,2,18,14,0.000530786,8.234564993,0.000530645,0.008096718,1,1,0,4,66,11,223,3,0.241967422
"Basilica di Santa Prassede, sacello di San Zenone",41.896435,12.498647,3,4.9,1910,"religion,churches,interesting_places,other_churches",churches,Rome,IT,religion,1,churches,6,2,18,14,0.00052356,7.555381944,0.000523423,0.00674998,1,1,0,4,49,8,223,7,0.122653338
"Equestrian statue of Carlo Alberto, Villa Carlo Alberto al Quirinale",41.899676,12.488315,3,4.8,512,"cultural,museums,interesting_places,other_museums, historic,cultural,urban_environment,monuments_and_memorials,interesting_places,sculptures,monuments",gardens,Rome,IT,culture,3,gardens,12,1,18,14,0.005859375,6.240275845,0.005842276,0.00866756,1,0,0,11,68,10,592,2,0.0328788
Teatro Sistina,41.904221,12.486885,3,4.1,5779,"cultural,cinemas,theatres_and_entertainments,interesting_places",theatres,Rome,IT,entertainment,2,theatres,29,3,18,14,0.000346081,8.662158962,0.000346021,0.009620523,1,0,1,4,14,2,105,4,0.371106617
Porta Pia,41.909203,12.500993,3,2.6,968,"fortifications,defensive_walls,historic,archaeology,interesting_places,other_archaeological_sites",gates,Rome,IT,culture,1,gates,13,1,18,14,0.001033058,6.876264612,0.001032525,0.007879978,1,0,0,6,9,2,592,4,0.062161482
Teatro Eliseo,41.897976,12.488589,3,3.6,1841,"cultural,theatres_and_entertainments,interesting_places,other_theatres",theatres,Rome,IT,entertainment,2,theatres,29,3,18,14,0.001086366,7.518607217,0.001085776,0.009180561,1,0,1,4,13,2,105,4,0.118222406
"Monument to Bersagliere, Monumento al Bersagliere",41.90958,12.501715,1,1.3,42,"historic,monuments_and_memorials,interesting_places,monuments",monuments,Rome,IT,culture,1,monuments,18,1,18,14,0.023809524,3.761200116,0.023530498,0.008614965,1,0,0,4,49,6,592,12,0.002697089
"Arco di Gallieno, Hilful Fuzul Social Organization - Mosque",41.895824,12.501305,1,3.5,98,"architecture,historic_architecture,historic,monuments_and_memorials,interesting_places,monuments,triumphal_archs",mosques,Rome,IT,culture,2,mosques,19,1,18,14,0.020408163,4.59511985,0.020202707,0.008527813,1,0,0,7,59,9,592,1,0.006293208
"Fontana dei Dioscuri, Obelisco del Quirinale, Palazzo della Consulta, Piazza del Quirinale",41.899126,12.486593,3,3.9,493,"historic,monuments_and_memorials,urban_environment,cultural,interesting_places,sculptures,monuments, historic,urban_environment,natural_springs,natural,springs_others,fountains,monuments_and_memorials,cultural,interesting_places,monuments, palaces,architecture,historic_architecture,interesting_places","landmark, monuments",Rome,IT,culture,1,landmark,15,1,18,14,0.002028398,6.202535517,0.002026344,0.010472608,0,0,0,21,90,12,592,6,0.031658689
Porta Clausa,41.904381,12.50716,1,4.4,7,"fortifications,historic,defensive_walls,interesting_places",gates,Rome,IT,culture,1,gates,13,1,18,14,0.142857143,2.079441542,0.133531393,0.01087553,0,0,0,4,12,2,592,4,0.000449515
"Basilica dei Santi Silvestro e Martino ai Monti, Basilica di San Martino ai Monti",41.894566,12.498271,3,3.2,1008,"religion,churches,interesting_places,catholic_churches",churches,Rome,IT,religion,1,churches,6,2,18,14,0.000992063,6.91671502,0.000991571,0.008443897,1,1,0,4,81,14,223,7,0.064730138
"Fontana della Madonna dei Monti, Fountain of the Catechumens, Piazza della Madonna dei Monti",41.894882,12.490864,3,4.8,2416,"fountains,historic,monuments_and_memorials,urban_environment,cultural,interesting_places,sculptures,monuments",fountains,Rome,IT,culture,2,fountains,10,1,18,14,0.000827815,7.790282381,0.000827473,0.009661367,1,0,0,8,92,14,592,3,0.15514684
Porta Magica,41.8955,12.503739,3,3.6,678,"architecture,historic_architecture,fortifications,defensive_walls,historic,interesting_places,destroyed_objects",gates,Rome,IT,culture,1,gates,13,1,18,14,0.001474926,6.520621128,0.001473839,0.010351373,0,0,0,7,12,2,592,4,0.043538724
"Basilica of San Pietro in Vincoli, Saint Peter in Chains",41.893852,12.493157,3,4.7,15633,"religion,churches,interesting_places,catholic_churches",churches,Rome,IT,religion,1,churches,6,2,18,14,6.40E-05,9.657203309,6.40E-05,0.00951755,1,1,0,4,56,10,223,7,1.003895094
"Teatro Salone Margherita, Theater Salone Margherita",41.904274,12.484037,3,4.6,969,"cultural,cinemas,theatres_and_entertainments,interesting_places",theatres,Rome,IT,entertainment,2,theatres,29,3,18,14,0.002063983,6.877296071,0.002061856,0.01245056,0,0,1,4,51,6,105,4,0.062225699
"San Francesco di Paola ai Monti, Torre Dei Borgia",41.893806,12.491442,1,3.5,28,"religion,churches,interesting_places,catholic_churches",landmark,Rome,IT,religion,1,landmark,15,2,18,14,0.035714286,3.36729583,0.03509132,0.010270044,0,1,0,4,49,9,223,6,0.001798059
Trevi Fountain,41.900978,12.483285,3,4.3,452095,"fountains,historic,monuments_and_memorials,urban_environment,cultural,interesting_places,sculptures,monuments",monuments,Rome,IT,culture,1,monuments,18,1,18,14,2.21E-06,13.02164983,2.21E-06,0.013240956,0,0,0,8,14,2,592,12,29.03191661
"Torre delle Milizie, Tower of Milizie",41.895958,12.486672,3,4.3,107,"architecture,towers,fortifications,historic,interesting_places,other_towers,fortified_towers",landmark,Rome,IT,culture,1,landmark,15,1,18,14,0.009345794,4.682131227,0.009302392,0.011893147,0,0,0,7,37,6,592,6,0.006871156
"Colonna dell'Immacolata, Column of the Immaculate Conception",41.904976,12.482965,3,2.5,980,"historic,monuments_and_memorials,burial_places,urban_environment,cultural,interesting_places,other_burial_places,sculptures,monuments",monuments,Rome,IT,culture,1,monuments,18,1,18,14,0.001020408,6.88857246,0.001019888,0.013610077,0,0,0,9,60,7,592,12,0.062932079
"Obelisco Sallustiano, Sallustiano Obelisk, Spanish Steps",41.906104,12.48304,3,4,87905,"historic,monuments_and_memorials,urban_environment,cultural,interesting_places,sculptures,monuments, other,unclassified_objects,interesting_places,tourist_object",monuments,Rome,IT,culture,1,monuments,18,1,18,14,1.14E-05,11.38402334,1.14E-05,0.013762486,0,0,0,11,56,6,592,12,5.644943274
"Chiesa Evangelica Valdese in Rione Trevi, Opera da Camera di Roma",41.897083,12.48475,3,4.3,107,"religion,churches,interesting_places,other_churches",concert hall,Rome,IT,religion,3,concert hall,8,2,18,14,0.028037383,4.682131227,0.027651531,0.012977156,0,1,0,4,65,11,223,2,0.006871156
"Teatro Quirino, Theater Quirino Vittorio Gassman",41.899921,12.48258,3,2.4,708,"cultural,theatres_and_entertainments,interesting_places,opera_houses",theatres,Rome,IT,entertainment,2,theatres,29,3,18,14,0.002824859,6.563855527,0.002820877,0.014116694,0,0,1,4,48,6,105,4,0.045465216
"Fontana del Bottino, San Sebastianello",41.906891,12.482806,1,4.1,24,"religion,churches,interesting_places,other_churches",fountains,Rome,IT,religion,2,fountains,10,2,18,14,0.083333333,3.218875825,0.080042707,0.014196236,0,1,0,4,38,5,223,3,0.001541194
Cinema dei Piccoli,41.911613,12.487748,2,2.5,345,"cultural,cinemas,theatres_and_entertainments,interesting_places",cinemas,Rome,IT,entertainment,2,cinemas,7,3,18,14,0.005797101,5.846438775,0.005780362,0.012350145,0,0,1,4,18,3,105,2,0.02215466
Fontana della Barcaccia,41.90583,12.482221,3,4.7,2216,"fountains,historic,monuments_and_memorials,urban_environment,cultural,interesting_places,sculptures,monuments",sculptures,Rome,IT,culture,2,sculptures,26,1,18,14,0.000902527,7.70391021,0.00090212,0.014499136,0,0,0,8,23,3,592,4,0.142303558
"Equestrian statue of Umberto I, Monument to King Umberto I",41.9123,12.4889,1,1.9,77,"historic,cultural,urban_environment,monuments_and_memorials,interesting_places,sculptures,monuments",monuments,Rome,IT,culture,1,monuments,18,1,18,14,0.012987013,4.356708827,0.012903405,0.012103718,0,0,0,7,58,10,592,12,0.004944663
"Arches of Drusus and Germanicus, Forum of Augustus",41.894318,12.486844,3,4.9,2582,"architecture,historic_architecture,historic,monuments_and_memorials,interesting_places,monuments,triumphal_archs, historic,archaeology,interesting_places,other_archaeological_sites",landmark,Rome,IT,culture,1,landmark,15,1,18,14,0.000387297,7.856706793,0.000387222,0.012777381,0,0,0,11,50,8,592,6,0.165806763
Torre dei Conti,41.893612,12.487917,1,4.1,93,"architecture,towers,interesting_places,other_towers",fortresses,Rome,IT,culture,2,fortresses,9,1,18,14,0.021505376,4.543294782,0.021277398,0.012505224,0,0,0,4,15,3,592,1,0.005972126
"Basilica Ulpia, Trajan's Column",41.895697,12.484417,3,4.1,4289,"architecture,historic_architecture,historic,archaeology,interesting_places,destroyed_objects,other_archaeological_sites, historic,urban_environment,archaeology,other_archaeological_sites,monuments_and_memorials,burial_places,cultural,interesting_places,other_burial_places,sculptures,monuments","monuments, public sculpture",Rome,IT,culture,1,monuments,18,1,18,14,0.000233155,8.364042012,0.000233128,0.01393,0,0,0,18,31,4,592,12,0.27542417
"Monument to Goethe, Monumento a Goethe",41.911545,12.486335,3,3.3,127,"historic,monuments_and_memorials,urban_environment,cultural,interesting_places,sculptures,monuments",monuments,Rome,IT,culture,1,monuments,18,1,18,14,0.007874016,4.852030264,0.007843178,0.013333389,0,0,0,7,38,6,592,12,0.008155484
Villa Medici,41.908272,12.48272,3,5,3016,"cultural,museums,interesting_places,art_galleries",museums,Rome,IT,culture,2,museums,20,1,18,14,0.00066313,8.012018239,0.00066291,0.014733811,0,0,0,4,12,2,592,3,0.193676684
"Giulio Cesare, Imperial fora, Statua di Traiano",41.894421,12.48546,3,2.9,158,"historic,archaeology,interesting_places,other_archaeological_sites, historic,monuments_and_memorials,urban_environment,archaeology,cultural,interesting_places,other_archaeological_sites,sculptures,squares,monuments",public sculpture,Rome,IT,culture,1,public sculpture,23,1,18,14,0.006329114,5.068904202,0.006309169,0.013780103,0,0,0,14,47,7,592,3,0.010146192
"Porta San Lorenzo, Porta Tiburtina",41.89748,12.51031,3,1.7,147,"fortifications,defensive_walls,historic,interesting_places",gates,Rome,IT,culture,1,gates,13,1,18,14,0.006802721,4.997212274,0.006779687,0.014892632,0,0,0,4,34,5,592,4,0.009439812
Santa Maria di Loreto,41.895973,12.483708,3,2.9,305,"religion,churches,interesting_places,catholic_churches",churches,Rome,IT,religion,1,churches,6,2,18,14,0.003278689,5.723585102,0.003273326,0.01441162,0,1,0,4,21,4,223,7,0.019586004
"Galleria Borghese, Villa Borghese Pinciana",41.914156,12.492128,3,4.5,51024,"cultural,museums,interesting_places,art_galleries, palaces,architecture,historic_architecture,museums,cultural,interesting_places,other_museums",sculptures,Rome,IT,culture,2,sculptures,26,1,18,14,3.92E-05,10.84007099,3.92E-05,0.01213296,0,0,0,11,42,5,592,4,3.27657796
"Fontana del Facchino, Fountain of the Porter, Palazzo Doria Pamphili, Palazzo Pamphili",41.898152,12.481501,3,4,168,"fountains,historic,monuments_and_memorials,urban_environment,cultural,interesting_places,sculptures,monuments, palaces,architecture,historic_architecture,interesting_places","fountains, landmark",Rome,IT,culture,2,fountains,10,1,18,14,0.011904762,5.129898715,0.011834458,0.015607181,0,0,0,12,86,12,592,3,0.010788356
Temple of Venus Genetrix,41.89407,12.484773,3,3.8,212,"historic,archaeology,interesting_places,other_archaeological_sites, religion,architecture,historic_architecture,other_temples,historic,archaeology,interesting_places,destroyed_objects,other_archaeological_sites",temples,Rome,IT,religion,2,temples,28,2,18,14,0.009433962,5.361292166,0.00938974,0.014539602,0,1,0,13,24,4,223,2,0.013613878
"Sacrario delle Bandiere delle Forze Armate, Sacrario delle bandiere",41.89492,12.483586,3,2.6,338,"cultural,museums,interesting_places,other_museums",monuments,Rome,IT,culture,1,monuments,18,1,18,14,0.00295858,5.826000107,0.002954212,0.015043038,0,0,0,4,67,9,592,12,0.021705146
"Column of Marcus Aurelius, Palazzo Wedekind, Piazza Colonna, Temple of Marcus Aurelius",41.900847,12.479775,3,4.2,3306,"historic,archaeology,interesting_places,other_archaeological_sites, historic,monuments_and_memorials,burial_places,urban_environment,archaeology,cultural,interesting_places,other_archaeological_sites,other_burial_places,sculptures,monuments, palaces,architecture,historic_architecture,interesting_places","landmark, monuments, palaces",Rome,IT,culture,3,landmark,15,1,18,14,0.000907441,8.103796713,0.00090703,0.01673932,0,0,0,19,86,12,592,6,0.212299442
"Altare della Patria, Equestrian statue of Vittorio Emanuele II, Goddess of Rome, Monument to Vittorio Emanuele II, Winged Victory, Winged victory by Edoardo Rubino",41.894956,12.482986,3,4.3,2488,"historic,monuments_and_memorials,urban_environment,cultural,interesting_places,sculptures,monuments, settlements,historic,urban_environment,archaeology,cultural,interesting_places,sculptures, urban_environment,cultural,interesting_places,sculptures","monuments, sculptures",Rome,IT,culture,2,monuments,18,1,18,14,0.000803859,7.819636302,0.000803536,0.015539103,0,0,0,18,163,24,592,12,0.159770421
"Antoninus and Faustina Temple, San Lorenzo in Miranda",41.892258,12.486757,3,2.7,381,"religion,churches,interesting_places,catholic_churches",temples,Rome,IT,religion,2,temples,28,2,18,14,0.005249344,5.945420609,0.005235614,0.0142871,0,1,0,4,53,8,223,2,0.024466451
"Monument to Victor Emmanuel II, Monument to Vittorio Emanuele II",41.894688,12.483067,3,4.1,68763,"architecture,historic_architecture,interesting_places,other_buildings_and_structures",monuments,Rome,IT,culture,1,monuments,18,1,18,14,1.45E-05,11.13843563,1.45E-05,0.015606839,0,0,0,4,64,10,592,12,4.415712807
"Luther Monument, Lutherdenkmal",52.520248,13.405941,1,4.6,57,"historic,monuments_and_memorials,urban_environment,cultural,interesting_places,sculptures,monuments",monuments,Berlin,DE,culture,1,monuments,18,1,4,4,0.01754386,4.060443011,0.017391743,0.000973132,1,0,0,7,30,3,592,10,0.008206457
"Neptunbrunnen, Neptune Fountain",52.519596,13.406855,3,4.7,11601,"fountains,historic,monuments_and_memorials,urban_environment,cultural,interesting_places,sculptures,monuments",sculptures,Berlin,DE,culture,2,sculptures,26,1,4,4,0.000172399,9.358932776,0.000172384,0.001898484,1,0,0,8,31,3,592,5,1.670229997
"Saint Mary's Church, St. Marienkirche",52.52055,13.407178,3,4.7,3535,"religion,churches,interesting_places,other_churches",churches,Berlin,DE,religion,1,churches,6,2,4,4,0.000282885,8.170751424,0.000282845,0.002246371,1,1,0,4,37,5,223,3,0.508944318
Berlin Cathedral,52.519081,13.401094,3,4.8,40027,"religion,cathedrals,interesting_places",monuments,Berlin,DE,religion,1,monuments,18,2,4,4,2.50E-05,10.59733449,2.50E-05,0.004012655,1,1,0,3,16,2,223,10,5.762804593
"203 Bar im Fernsehturm, Berlin TV Tower, Fernsehturm Berlin, Sphere Restaurant im Berliner Fernsehturm",52.520859,13.409405,3,4.5,141342,"towers,architecture,historic_architecture,interesting_places,observation_towers,restaurants,foods,bars,tourist_facilities,other_buildings_and_structures, towers,architecture,historic_architecture,interesting_places,observation_towers,restaurants,foods,tourist_facilities,other_buildings_and_structures, transmitter_towers,towers,architecture,historic_architecture,interesting_places,observation_towers,restaurants,foods,tourist_facilities,other_buildings_and_structures",monuments,Berlin,DE,gastronomy,1,monuments,18,6,4,4,7.08E-06,11.85894484,7.08E-06,0.004487973,1,0,0,29,102,14,108,10,20.34942231
"DESIGNPANOPTIKUM- surreal museum for industrial objects, Designpanoptikum",52.516872,13.406034,3,4.3,423,"cultural,museums,interesting_places,other_museums",museums,Berlin,DE,culture,2,museums,20,1,4,4,0.004728132,6.049733455,0.004716989,0.003294471,1,0,0,4,73,7,592,3,0.060900551
"St. Nicholas Church, St. Nicholas' Church Museum",52.516827,13.407513,3,4.5,3989,"religion,churches,cultural,museums,theatres_and_entertainments,interesting_places,history_museums,music_venues,other_churches",churches,Berlin,DE,religion,1,churches,6,2,4,4,0.000250689,8.29154651,0.000250658,0.004047604,1,1,0,9,48,7,223,3,0.57430803
"Knoblauchhaus, Museum Knoblauchhaus",52.516457,13.406992,3,1.3,380,"cultural,museums,interesting_places,other_museums",museums,Berlin,DE,culture,2,museums,20,1,4,4,0.005263158,5.942799375,0.005249356,0.004064593,1,0,0,4,35,3,592,3,0.054709715
"Heiliger Georg, St. George – The Dragonslayer",52.51627,13.405608,2,2.6,343,"historic,monuments_and_memorials,urban_environment,cultural,interesting_places,sculptures,monuments",public sculpture,Berlin,DE,culture,1,public sculpture,23,1,4,4,0.002915452,5.840641657,0.00291121,0.003779228,1,0,0,7,45,7,592,1,0.049382716
"Altes Museum, Old Museum",52.519455,13.398787,3,4.5,5318,"cultural,museums,interesting_places,history_museums,art_galleries",sculptures,Berlin,DE,culture,2,sculptures,26,1,4,4,0.000376081,8.579040595,0.00037601,0.006236858,1,0,0,5,24,4,592,5,0.765648058
"Alte Nationalgalerie, Equestrian statue of Frederick William IV, Frederick William IV of Prussia, Old National Gallery",52.520733,13.39843,3,4.7,8476,"cultural,museums,interesting_places,art_galleries, historic,monuments_and_memorials,urban_environment,cultural,interesting_places,installation,sculptures,monuments","monuments, museums",Berlin,DE,culture,2,monuments,18,1,4,4,0.00023596,9.045111893,0.000235932,0.006610763,1,0,0,12,118,16,592,10,1.220314581
"Hunne zu Pferde, Hunne zu Pferde Skulptur",52.521088,13.398726,1,1.4,3,"historic,monuments_and_memorials,urban_environment,cultural,interesting_places,sculptures,monuments",sculptures,Berlin,DE,culture,2,sculptures,26,1,4,4,0.666666667,1.386294361,0.510825624,0.006367638,1,0,0,7,41,7,592,5,0.000431919
"Circus Busch-Roland, James-Simon-Park",52.521931,13.39926,2,4.1,4179,"circuses,cultural,theatres_and_entertainments,interesting_places",parks,Berlin,DE,entertainment,1,parks,22,3,4,4,0.000239292,8.338066526,0.000239263,0.006056101,1,0,1,4,37,3,105,1,0.601662887
"Alexanderplatz, S Alexanderplatz",52.521564,13.411281,3,2.1,774,"railway_stations,industrial_facilities,interesting_places",railway stations,Berlin,DE,culture,2,railway stations,24,1,4,4,0.002583979,6.652863029,0.002580646,0.006472794,1,0,0,3,32,3,592,1,0.11143505
"Stolperstein dedicated to Gottfried Hollander, Stolperstein dedicated to Lotty Hollander, WhiteWall Store Berlin",52.523689,13.40148,2,2.1,116,"historic,monuments_and_memorials,burial_places,interesting_places,other_burial_places,monuments",walls,Berlin,DE,culture,1,walls,31,1,4,4,0.00862069,4.762173935,0.008583744,0.005098933,1,0,0,6,112,13,592,2,0.01670086
"Haus Schwarzenberg, Stolperstein dedicated to Rosa Salinger, Stolperstein dedicated to Ursula Salinger",52.5242,13.402716,2,4.5,1774,"historic,monuments_and_memorials,burial_places,interesting_places,other_burial_places,monuments",art gallery,Berlin,DE,culture,3,art gallery,1,1,4,4,0.001691094,7.481555702,0.001689666,0.004780864,1,0,0,6,102,12,592,1,0.255407983
"Neues Museum, New Museum",52.520168,13.397717,3,4.3,13167,"archaeological_museums,cultural,museums,interesting_places",museums,Berlin,DE,culture,2,museums,20,1,4,4,0.000151895,9.485544923,0.000151883,0.007284937,1,0,0,4,24,4,592,3,1.89569161
"Central Kino, Kino Central",52.524567,13.401842,2,3.5,516,"cultural,cinemas,theatres_and_entertainments,interesting_places",cinemas,Berlin,DE,entertainment,2,cinemas,7,3,4,4,0.003875969,6.248042875,0.003868477,0.005552518,1,0,1,4,26,4,105,2,0.074290033
"Beuth-Denkmal, Christian Beuth, Karl Friedrich Schinkel",52.5166,13.39868,1,3,6,"historic,monuments_and_memorials,urban_environment,cultural,interesting_places,sculptures,monuments",sculptures,Berlin,DE,culture,2,sculptures,26,1,4,4,0.333333333,1.945910149,0.287682072,0.007176517,1,0,0,7,55,6,592,5,0.000863838
"Brunnen der Völkerfreundschaft, Fountain of the Peoples' Friendship",52.522034,13.412771,3,3.3,295,"fountains,historic,monuments_and_memorials,urban_environment,cultural,interesting_places,sculptures,monuments",fountains,Berlin,DE,culture,2,fountains,10,1,4,4,0.006779661,5.690359454,0.006756782,0.008032783,1,0,0,8,67,8,592,1,0.042472015
"World Clock, World Time Clock",52.521164,13.413306,3,4.8,7226,"towers,architecture,interesting_places,clock_towers",landmark,Berlin,DE,culture,1,landmark,15,1,4,4,0.000138389,8.885579291,0.000138379,0.008387165,1,0,0,4,29,5,592,6,1.040348414
"Bear Fountain, Bärenbrunnen (Berlin)",52.51561,13.39813,1,2.6,40,"fountains,urban_environment,cultural,natural_springs,natural,interesting_places,springs_others",landmark,Berlin,DE,culture,1,landmark,15,1,4,4,0.025,3.713572067,0.024692613,0.008152852,1,0,0,7,36,4,592,6,0.005758917
"Neue Wache, New Guard House",52.517906,13.395537,3,4.5,1903,"historic,monuments_and_memorials,burial_places,interesting_places,other_burial_places,monuments",landmark,Berlin,DE,culture,1,landmark,15,1,4,4,0.000525486,7.551712215,0.000525348,0.009691914,1,0,0,6,27,5,592,6,0.273980492
"Friedrichswerdersche Church, Friedrichswerdersche Kirche",52.515884,13.397501,3,2.7,492,"religion,churches,cultural,museums,interesting_places,other_museums,other_churches",churches,Berlin,DE,religion,1,churches,6,2,4,4,0.00203252,6.200509174,0.002030457,0.008554324,1,1,0,7,56,4,223,3,0.070834683
"Alte Berliner Stadtmauer, Berliner Stadtmauer, Rispiger Blasenbaum Waisenstraße",52.516808,13.414056,1,2.4,54,"architecture,historic_architecture,fortifications,defensive_walls,historic,interesting_places,destroyed_objects, natural_monuments,interesting_places,natural,nature_reserves",landmark,Berlin,DE,culture,1,landmark,15,1,4,4,0.018518519,4.007333185,0.018349139,0.009602083,1,0,0,11,79,8,592,6,0.007774538
"Friedrich Wilhelm Bülow, Gerhard von Scharnhorst, Scharnhorstdenkmal, Statues of Gerhard von Scharnhorst & Friedrich von Bülow",52.517147,13.395436,1,4.8,18,"historic,monuments_and_memorials,urban_environment,cultural,interesting_places,sculptures,monuments, urban_environment,cultural,interesting_places,sculptures","monuments, public sculpture",Berlin,DE,culture,1,monuments,18,1,4,4,0.055555556,2.944438979,0.054067222,0.009980466,1,0,0,11,126,16,592,10,0.002591513
"Ludwig Yorck, Monument for Blücher (Berlin), Monument to Blücher, Yorckdenkmal",52.516582,13.395828,1,1.7,9,"historic,cultural,urban_environment,monuments_and_memorials,interesting_places,sculptures,monuments, urban_environment,cultural,interesting_places,sculptures","monuments, public sculpture",Berlin,DE,culture,1,monuments,18,1,4,4,0.111111111,2.302585093,0.105360516,0.009788172,1,0,0,11,78,10,592,10,0.001295756
Pierre Boulez Saal,52.515434,13.396367,2,1.4,821,"cultural,theatres_and_entertainments,interesting_places,music_venues",concert hall,Berlin,DE,entertainment,3,concert hall,8,3,4,4,0.00365408,6.711740395,0.00364742,0.009766117,1,0,1,4,18,3,105,1,0.118201778
"Babylon, Kino Babylon",52.525898,13.411436,3,4.5,2639,"cultural,cinemas,theatres_and_entertainments,interesting_places",cinemas,Berlin,DE,entertainment,2,cinemas,7,3,4,4,0.000757863,7.878534196,0.000757576,0.008729748,1,0,1,4,21,3,105,2,0.37994457
"Statue of Theodor Mommsen, Statue of Wilhelm von Humboldt, Theodor Mommsen, Wilhelm von Humboldt",52.517708,13.39336,1,1.3,40,"historic,monuments_and_memorials,urban_environment,cultural,interesting_places,sculptures,monuments","monuments, public sculpture",Berlin,DE,culture,1,monuments,18,1,4,4,0.025,3.713572067,0.024692613,0.01186351,0,0,0,7,96,14,592,10,0.005758917
"Memorial for the Nazi book burnings, Memorial to May 10, 1933 Nazi Book Burning",52.516514,13.393937,3,4.8,3678,"historic,monuments_and_memorials,burial_places,interesting_places,other_burial_places,monuments",monuments,Berlin,DE,culture,1,monuments,18,1,4,4,0.000271887,8.210396255,0.00027185,0.011599231,0,0,0,6,79,14,592,10,0.529532448
"Equestrian statue of King Friedrich II. of Prussia, Frederick II of Prussia",52.517254,13.392743,3,2.7,587,"historic,monuments_and_memorials,urban_environment,cultural,interesting_places,sculptures,monuments",monuments,Berlin,DE,culture,1,monuments,18,1,4,4,0.001703578,6.376726948,0.001702129,0.012560835,0,0,0,7,75,12,592,10,0.084512112
"Postfuhramt, THE ORIGINAL COLD WAR EAST BERLIN COMMUNISM & BERLIN WALL TOUR",52.525299,13.3928,1,4.7,11,"historic_architecture,architecture,interesting_places,other_buildings_and_structures",walls,Berlin,DE,culture,1,walls,31,1,4,4,0.090909091,2.48490665,0.087011377,0.013301105,0,0,0,4,75,12,592,2,0.001583702
"Berlin’s Huguenot museum, Französischer Dom, French Cathedral",52.514395,13.39247,3,4.7,4012,"museums,cultural,interesting_places,other_museums, religion,churches,interesting_places,other_churches",landmark,Berlin,DE,religion,1,landmark,15,2,4,4,0.000249252,8.29729437,0.000249221,0.013726504,0,1,0,8,61,7,223,6,0.577619408
"Der verlassene Raum, Mahnmal Der verlassene Raum",52.52853,13.397745,1,3.4,96,"historic,monuments_and_memorials,burial_places,interesting_places,other_burial_places,monuments",landmark,Berlin,DE,culture,1,landmark,15,1,4,4,0.010416667,4.574710979,0.010362787,0.011198032,0,0,0,6,48,7,592,6,0.013821402
Admiralspalast,52.520771,13.388902,3,4.9,7665,"cultural,cinemas,theatres_and_entertainments,interesting_places",theatres,Berlin,DE,entertainment,2,theatres,29,3,4,4,0.000260926,8.944550246,0.000260892,0.016116453,0,0,1,4,14,1,105,2,1.103552532
"Schiller Monument, Schillerbrunnen / Schillerdenkmal",52.513638,13.392648,1,2.6,61,"historic,monuments_and_memorials,urban_environment,cultural,interesting_places,sculptures,monuments",monuments,Berlin,DE,culture,1,monuments,18,1,4,4,0.016393443,4.127134385,0.016260521,0.013894134,0,0,0,7,52,5,592,10,0.008782349
Trains to Life – Trains to Death,52.519848,13.387743,3,4.8,136,"historic,cultural,urban_environment,monuments_and_memorials,interesting_places,sculptures,monuments",sculptures,Berlin,DE,culture,2,sculptures,26,1,4,4,0.014705882,4.919980926,0.014598799,0.017257669,0,0,0,7,32,7,592,5,0.019580319
Friedrichstadt-Palast,52.523922,13.388879,3,4.1,21337,"cultural,theatres_and_entertainments,interesting_places,other_theatres",theatres,Berlin,DE,entertainment,2,theatres,29,3,4,4,9.37E-05,9.9682448,9.37E-05,0.016591224,0,0,1,4,21,1,105,2,3.071950473
"Battle of Vienna, Capistran-Kanzel, Siege of Vienna, St. Stephen's Cathedral, Stephansdom Südturm",48.208377,16.373188,3,4.5,118154,"battlefields,historic,historical_places,interesting_places, religion,other_temples,interesting_places","castles, landmark",Vienna,AT,religion,2,castles,3,2,19,17,1.69E-05,11.6797526,1.69E-05,0.000637082,1,1,0,7,97,12,223,1,21.00980163
"Dom Museum, Dom Museum Wien, Großer Zwettlhof",48.208735,16.374118,3,2.1,742,"cultural,museums,interesting_places,art_galleries, historic_architecture,architecture,interesting_places,other_buildings_and_structures",art gallery,Vienna,AT,culture,3,art gallery,1,1,19,17,0.004043127,6.610696045,0.004034976,0.000622374,1,0,0,8,45,7,592,4,0.131940288
"Deutschordenskirche, Treasury of the Teutonic Order",48.20768,16.373358,3,3.2,266,"religion,churches,cultural,museums,interesting_places,other_museums,other_churches",churches,Vienna,AT,religion,1,churches,6,2,19,17,0.003759398,5.587248658,0.003752349,0.000682469,1,1,0,7,51,6,223,5,0.047299349
"Blutgassenviertel (Blood Alley Quarter), Bürgerhaus (Teil des Fähnrichshofs), Kleiner Fähnrichshof, Blutgasse 9, Vienna",48.207458,16.374024,1,1.6,30,"historic_architecture,architecture,interesting_places,other_buildings_and_structures",landmark,Vienna,AT,culture,1,landmark,15,1,19,17,0.033333333,3.433987204,0.032789823,0.000775074,1,0,0,4,119,13,592,6,0.005334513
"Mozarthaus Vienna, Trienter Hof, Vienna, Wien Museum Mozart apartment",48.208144,16.374932,3,4.8,15714,"biographical_museums,cultural,museums,interesting_places, historic_architecture,architecture,interesting_places,other_buildings_and_structures",museums,Vienna,AT,culture,2,museums,20,1,19,17,0.000127275,9.662370949,0.000127267,0.001133384,1,0,0,8,69,9,592,1,2.794217908
"Virgilkapelle, Wien Museum Virgilkapelle",48.208336,16.372263,3,4.4,566,"historic,churches,archaeology,museums,other_museums,other_archaeological_sites,other_churches,religion,cultural,interesting_places, religion,churches,cultural,museums,interesting_places,other_museums,other_churches",walls,Vienna,AT,religion,1,walls,31,2,19,17,0.001766784,6.340359304,0.001765225,0.001543005,1,1,0,17,40,4,223,4,0.100644479
"Anker, Equitable, Haas-Haus, Stock im Eisen, Stock-im-Eisen",48.208062,16.371588,3,4.8,761,"architecture,historic_architecture,interesting_places,shops,bakeries,tourist_facilities,other_buildings_and_structures, architecture,historic_architecture,interesting_places,shops,malls,tourist_facilities,other_buildings_and_structures, historic,monuments_and_memorials,interesting_places,monuments","landmark, public sculpture, walls",Vienna,AT,culture,1,landmark,15,1,19,17,0.00131406,6.635946556,0.001313197,0.002216301,1,0,0,18,59,7,592,6,0.135318813
"Bergsport Schwanda, Bäckerstraße 7, Vienna",48.209251,16.375908,2,1.6,283,"historic_architecture,architecture,interesting_places,other_buildings_and_structures",walls,Vienna,AT,culture,1,walls,31,1,19,17,0.003533569,5.648974238,0.003527341,0.002355476,1,0,0,4,42,5,592,4,0.050322239
"Stephansplatz, Tabak-Trafik Graben 31",48.208252,16.371151,2,3.5,908,"other,unclassified_objects,interesting_places,historic_object",railway stations,Vienna,AT,culture,2,railway stations,24,1,19,17,0.002202643,6.812345094,0.002200221,0.00264951,1,0,0,4,37,4,592,1,0.161457927
"Gutenberg, Johannes-Gutenberg-Monument",48.209797,16.374943,2,2.9,270,"historic,monuments_and_memorials,urban_environment,cultural,interesting_places,sculptures,monuments",monuments,Vienna,AT,culture,1,monuments,18,1,19,17,0.003703704,5.602118821,0.003696862,0.001963888,1,0,0,7,38,2,592,4,0.048010617
"Haus Sonnenfelsgasse 3, Wien, IM ERSTEN",48.20977,16.37562,1,2.4,2,"historic_architecture,architecture,interesting_places,other_buildings_and_structures",concert hall,Vienna,AT,culture,3,concert hall,8,1,19,17,1.5,1.098612289,0.916290732,0.002403601,1,0,0,4,39,6,592,2,0.000355634
Leopoldsbrunnen,48.208363,16.370352,2,2.4,171,"fountains,urban_environment,cultural,natural_springs,natural,interesting_places,springs_others",sculptures,Vienna,AT,nature,2,sculptures,26,4,19,17,0.011695906,5.147494477,0.011628038,0.003451851,1,0,0,7,15,1,28,1,0.030406724
Ankeruhr,48.210762,16.373674,3,4.4,12384,"towers,architecture,interesting_places,clock_towers",landmark,Vienna,AT,culture,1,landmark,15,1,19,17,8.07E-05,9.424241342,8.07E-05,0.002565096,1,0,0,4,8,1,592,6,2.202086966
"Roman Museum, Vermählungsbrunnen, Wien Museum Römermuseum",48.210787,16.37289,3,3.8,995,"cultural,museums,interesting_places,other_museums, fountains,urban_environment,cultural,natural_springs,natural,interesting_places,installation,springs_others","fortresses, sculptures",Vienna,AT,culture,2,fortresses,9,1,19,17,0.00201005,6.903747258,0.002008033,0.002742384,1,0,0,12,57,6,592,1,0.176928014
"Column of Pest, Fotzenpoidl, Holy Trinity Column",48.20871,16.369793,3,4.6,22614,"historic,cultural,urban_environment,monuments_and_memorials,interesting_places,sculptures,monuments, historic,monuments_and_memorials,burial_places,urban_environment,cultural,interesting_places,other_burial_places,sculptures,monuments",monuments,Vienna,AT,culture,1,monuments,18,1,19,17,4.42E-05,10.02636868,4.42E-05,0.004039325,1,0,0,16,48,7,592,4,4.021155898
Donnerbrunnen,48.206142,16.370712,3,2.8,399,"fountains,historic,monuments_and_memorials,urban_environment,cultural,interesting_places,sculptures,monuments",monuments,Vienna,AT,culture,1,monuments,18,1,19,17,0.002506266,5.991464547,0.002503131,0.003710944,1,0,0,8,13,1,592,4,0.070949023
"Cine Center, CineCenter",48.211193,16.374603,2,1.3,592,"cultural,cinemas,theatres_and_entertainments,interesting_places",cinemas,Vienna,AT,entertainment,2,cinemas,7,3,19,17,0.003378378,6.385194399,0.003372684,0.003098848,1,0,1,4,23,3,105,2,0.105267723
"Bräunerhof, Jewish Museum of the City of Vienna, Kunsthandel Stephan Andréewitch, Palais Eskeles",48.207174,16.369082,3,3.2,2282,"other,unclassified_objects,interesting_places,historic_object, palaces,architecture,historic_architecture,museums,cultural,interesting_places,other_museums","art gallery, museums",Vienna,AT,culture,3,art gallery,1,1,19,17,0.001314636,7.733245647,0.001313773,0.004828271,1,0,0,11,96,13,592,4,0.405778622
"Bürgerhaus ""Zum Sommer"", Neidhart Festsaal (formerly Neidhart Frescoes)",48.210819,16.371241,1,1,78,"historic_architecture,architecture,interesting_places,other_buildings_and_structures",walls,Vienna,AT,culture,1,walls,31,1,19,17,0.012820513,4.369447852,0.012739026,0.003661645,1,0,0,4,71,8,592,4,0.013869734
"Graben 22, Josefsbrunnen, Öffentliche Bedürfnisanstalt am Graben",48.209149,16.369158,3,4.9,339,"fountains,urban_environment,cultural,natural_springs,natural,interesting_places,springs_others, historic_architecture,architecture,interesting_places,other_buildings_and_structures, other,unclassified_objects,interesting_places,historic_object",landmark,Vienna,AT,culture,1,landmark,15,1,19,17,0.002949853,5.828945618,0.002945511,0.004738013,1,0,0,15,64,7,592,6,0.060279997
"Capuchin Church, llc, Imperial Crypt, Kapuzinerkirche",48.205736,16.370066,3,4,12107,"historic,burial_places,crypts,interesting_places, religion,churches,monasteries,interesting_places,catholic_churches","churches, landmark",Vienna,AT,religion,1,churches,6,2,19,17,8.26E-05,9.40162167,8.26E-05,0.004473707,1,1,0,9,53,6,223,5,2.152831629
"Griechenkirche zur Heiligen Dreifaltigkeit, Holy Trinity Greek Orthodox Church",48.210728,16.377455,3,3.2,1012,"religion,churches,interesting_places,eastern_orthodox_churches",churches,Vienna,AT,religion,1,churches,6,2,19,17,0.000988142,6.920671504,0.000987654,0.004444076,1,1,0,4,78,9,223,5,0.179950905
"Rare secular gothic facade, Steyrerhof Building, Vienna",48.21125,16.376514,1,2.3,20,"historic_architecture,architecture,interesting_places,other_buildings_and_structures",landmark,Vienna,AT,culture,1,landmark,15,1,19,17,0.05,3.044522438,0.048790164,0.004082682,1,0,0,4,55,7,592,6,0.003556342
"Bermudadreieck, Stadttempel",48.211708,16.374659,3,4.2,461,"historical_places,historic,interesting_places,historic_districts",landmark,Vienna,AT,culture,1,landmark,15,1,19,17,0.002169197,6.135564891,0.002166848,0.00361164,1,0,0,4,27,2,592,6,0.081973683
"ARTIS INTERNATIONAL, Sternhof",48.211285,16.371099,2,5,3137,"historic_architecture,architecture,interesting_places,other_buildings_and_structures",cinemas,Vienna,AT,culture,2,cinemas,7,1,19,17,0.000637552,8.051340933,0.000637349,0.00410032,1,0,0,4,29,3,592,2,0.557812242
"Habsburgergasse 10, Time Travel Vienna, Trickymind Museum",48.208318,16.368333,2,4.8,10118,"cultural,museums,interesting_places,other_museums, historic_architecture,architecture,interesting_places,other_buildings_and_structures","art gallery, landmark",Vienna,AT,culture,3,art gallery,1,1,19,17,0.000296501,9.222170124,0.000296457,0.005468273,1,0,0,8,57,7,592,4,1.799153417
"Palais Eskeles, Reformierte Stadtkirche",48.206928,16.368721,1,3.8,6,"religion,churches,interesting_places,other_churches",palaces,Vienna,AT,religion,3,palaces,21,2,19,17,0.5,1.945910149,0.405465108,0.00523586,1,1,0,4,39,4,223,3,0.001066903
"Maltese Church, Vienna, Malteserkirche",48.205009,16.371178,3,3.1,217,"religion,churches,interesting_places,catholic_churches",churches,Vienna,AT,religion,1,churches,6,2,19,17,0.004608295,5.384495063,0.004597709,0.004130056,1,1,0,4,38,4,223,5,0.038586311
"Marc Aurel Statue, Marc-Aurel-Hof",48.211899,16.373192,1,1.3,1,"other,unclassified_objects,interesting_places,historic_object",public sculpture,Vienna,AT,culture,1,public sculpture,23,1,19,17,1,0.693147181,0.693147181,0.003748635,1,0,0,4,33,4,592,1,0.000177817
"Dr.-Iwan-Franko-Denkmal, Griechisch-katholische St.-Barbara-Kirche, Hnatyschyn-Gedenktafel",48.209621,16.378998,2,4.8,480,"historic,monuments_and_memorials,burial_places,interesting_places,other_burial_places,monuments, historic,monuments_and_memorials,interesting_places,monuments",churches,Vienna,AT,culture,1,churches,6,1,19,17,0.002083333,6.17586727,0.002081166,0.005388733,1,0,0,10,90,4,592,5,0.085352208
"Classical Concerts in St Anne’s Church(Annakirche) in Vienna, Matthias Sindelar, Sound of Vienna, St. Anna",48.204516,16.371622,3,4,499,"historic,monuments_and_memorials,interesting_places,monuments, religion,churches,monasteries,interesting_places,other_churches",concert hall,Vienna,AT,religion,3,concert hall,8,2,19,17,0.006012024,6.214608098,0.005994024,0.004279666,1,1,0,9,106,15,223,2,0.088730733
"Clock Museum, Palais Obizzi",48.210836,16.369338,3,3.6,306,"cultural,museums,interesting_places,other_museums, palaces,architecture,historic_architecture,museums,cultural,interesting_places,other_museums",palaces,Vienna,AT,culture,3,palaces,21,1,19,17,0.009803922,5.726847748,0.009756175,0.005182465,1,0,0,11,27,4,592,3,0.054412033
"Archives Of The Austrian Resistance, Documentation Centre of Austrian Resistance",48.21209,16.371309,3,4,114,"cultural,museums,interesting_places,other_museums",walls,Vienna,AT,culture,1,walls,31,1,19,17,0.00877193,4.744932128,0.00873368,0.004619219,1,0,0,4,80,10,592,4,0.020271149
"Gotthold Ephraim Lessing, Lessing-Denkmal",48.211525,16.369844,1,3.9,76,"historic,monuments_and_memorials,interesting_places,monuments",monuments,Vienna,AT,culture,1,monuments,18,1,19,17,0.013157895,4.343805422,0.013072082,0.005167742,1,0,0,4,41,4,592,4,0.0135141
Theatermuseum,48.20562,16.368519,3,3.5,692,"cultural,museums,interesting_places,art_galleries",art gallery,Vienna,AT,culture,3,art gallery,1,1,19,17,0.00433526,6.541029999,0.00432589,0.00587753,1,0,0,4,13,1,592,4,0.123049433
Palais Pallavicini,48.206657,16.367666,3,4.9,118,"palaces,architecture,historic_architecture,interesting_places",palaces,Vienna,AT,nature,3,palaces,21,4,19,17,0.025423729,4.779123493,0.025105921,0.006325093,1,0,0,4,18,2,28,3,0.020982418
Font de Santa Anna,41.384544,2.1742,2,4.6,188,"fountains,urban_environment,cultural,interesting_places",sculptures,Barcelona,ES,culture,2,sculptures,26,1,3,3,0.010638298,5.241747015,0.010582109,0.000974236,1,0,0,4,18,4,592,4,0.019190506
"The World Comes To Life With Each Kiss, el mon neix a cada besada",41.385162,2.174822,3,3.6,912,"historic,monuments_and_memorials,urban_environment,cultural,interesting_places,installation,sculptures,monuments",public sculpture,Barcelona,ES,culture,1,public sculpture,23,1,3,3,0.001096491,6.816735881,0.00109589,0.001423351,1,0,0,8,65,14,592,2,0.093094371
"Church of Santa Ana, Creu de Santa Anna, Creu de Terme, Santa Anna Church",41.385847,2.171586,3,3.8,951,"religion,churches,monasteries,interesting_places,catholic_churches, religion,other_temples,interesting_places","churches, landmark",Barcelona,ES,religion,1,churches,6,2,3,3,0.001051525,6.858565035,0.001050973,0.001961786,1,1,0,8,73,14,223,4,0.097075381
"Barcino, Barcino (Joan Brossa), Barcino Sculpture, Roman Aqueduct",41.384174,2.1754,3,1.2,105,"historic,monuments_and_memorials,urban_environment,cultural,interesting_places,sculptures,monuments, settlements,historic,archaeology,interesting_places","landmark, public sculpture",Barcelona,ES,culture,1,landmark,15,1,3,3,0.00952381,4.663439094,0.009478744,0.002203968,1,0,0,11,65,8,592,15,0.010718102
"Cine Maldà, Cinema Maldà",41.383236,2.1739,3,4.3,1264,"cultural,cinemas,theatres_and_entertainments,interesting_places",cinemas,Barcelona,ES,entertainment,2,cinemas,7,3,3,3,0.001582278,7.142827401,0.001581028,0.001929895,1,0,1,4,24,4,105,1,0.129025532
"Club Capitol, Font de Canaletes",41.385079,2.17044,3,4,9112,"cultural,cinemas,theatres_and_entertainments,interesting_places, fountains,historic,monuments_and_memorials,urban_environment,cultural,interesting_places,installation,sculptures,monuments","landmark, theatres",Barcelona,ES,entertainment,2,landmark,15,3,3,3,0.000219491,9.117457244,0.000219467,0.002960074,1,0,1,13,31,5,105,15,0.930127097
"Building of the Royal Academy of Sciences and Arts of Barcelona, Poliorama, Reial Acadèmia de Ciències Naturals i Arts de Barcelona, Teatre Poliorama",41.384155,2.170751,3,4.6,18951,"cultural,cinemas,theatres_and_entertainments,interesting_places, historic,cultural,urban_environment,monuments_and_memorials,interesting_places,sculptures,monuments, historic_architecture,architecture,interesting_places,other_buildings_and_structures",theatres,Barcelona,ES,entertainment,2,theatres,29,3,3,3,0.000105535,9.849664746,0.000105529,0.002812512,1,0,1,15,149,23,105,4,1.93446429
"Església de Sant Sever, Monument als Herois de 1809, Monument to the martyrs of independence, Àngel",41.383561,2.175729,3,5,167,"historic,cultural,urban_environment,monuments_and_memorials,interesting_places,sculptures,monuments, historic,monuments_and_memorials,urban_environment,cultural,interesting_places,sculptures,monuments, religion,churches,interesting_places,catholic_churches","churches, monuments",Barcelona,ES,religion,1,churches,6,2,3,3,0.005988024,5.123963979,0.005970167,0.002791552,1,1,0,18,99,16,223,4,0.017046886
Font de la Portaferrissa,41.383041,2.171898,2,3.2,227,"fountains,historic,monuments_and_memorials,urban_environment,cultural,interesting_places,sculptures,monuments",landmark,Barcelona,ES,culture,1,landmark,15,1,3,3,0.004405286,5.429345629,0.004395611,0.002548624,1,0,0,8,24,4,592,15,0.023171516
"Mare de Déu de la Mercè, Sala Parés",41.382671,2.17313,2,2.9,558,"historic,cultural,urban_environment,monuments_and_memorials,interesting_places,sculptures,monuments",art gallery,Barcelona,ES,culture,3,art gallery,1,1,3,3,0.005376344,6.326149473,0.005361943,0.00244396,1,0,0,7,35,8,592,3,0.056959056
"A Francesc Cambó, Monument a Cambó",41.38744,2.174329,1,2.3,12,"historic,monuments_and_memorials,urban_environment,cultural,interesting_places,sculptures,monuments",monuments,Barcelona,ES,culture,1,monuments,18,1,3,3,0.083333333,2.564949357,0.080042707,0.002517666,1,0,0,7,34,6,592,1,0.001224926
"Casa dels Canonges, Cases dels Canonges, Font del Claustre de la Catedral. Sant Jordi, Saint George’s Fountain",41.383577,2.176344,1,1.5,53,"architecture,historic_architecture,interesting_places,other_buildings_and_structures, fountains,historic,cultural,urban_environment,monuments_and_memorials,interesting_places,sculptures,monuments",landmark,Barcelona,ES,culture,1,landmark,15,1,3,3,0.018867925,3.988984047,0.018692133,0.003314614,1,0,0,12,110,17,592,15,0.00541009
"Museu Frederic Marès, Palau Reial Major, Palau Reial Major de Barcelona, Saló del Tinell",41.384329,2.177042,3,4.5,2719,"historic,monuments_and_memorials,cultural,museums,interesting_places,other_museums,monuments, palaces,architecture,historic_architecture,historic,monuments_and_memorials,cultural,museums,interesting_places,other_museums,monuments, palaces,architecture,historic_architecture,interesting_places","castles, landmark, sculptures",Barcelona,ES,culture,2,castles,3,1,3,3,0.000735565,7.908387159,0.000735295,0.003722715,1,0,0,21,88,14,592,2,0.277547803
"Font dels Sis Putti, Fountain of the Six Putti",41.387032,2.17088,1,1.8,31,"fountains,historic,cultural,urban_environment,monuments_and_memorials,interesting_places,sculptures,monuments",sculptures,Barcelona,ES,culture,2,sculptures,26,1,3,3,0.064516129,3.465735903,0.062520357,0.003175378,1,0,0,8,46,9,592,4,0.003164392
"A Àngel Guimerà, Monument a Àngel Guimerà, Plaça del Pi, plaça del Pi",41.382404,2.173905,3,3.2,2369,"historic,cultural,urban_environment,monuments_and_memorials,interesting_places,sculptures,monuments, squares,interesting_places,cultural,urban_environment","landmark, monuments",Barcelona,ES,culture,1,landmark,15,1,3,3,0.000422119,7.770645234,0.00042203,0.002742889,1,0,0,11,69,13,592,15,0.241820796
"La deessa, The Goddess",41.386421,2.170102,1,2.7,76,"historic,monuments_and_memorials,urban_environment,cultural,interesting_places,sculptures,monuments",sculptures,Barcelona,ES,culture,2,sculptures,26,1,3,3,0.026315789,4.343805422,0.025975486,0.003552724,1,0,0,7,22,4,592,4,0.007757864
"Antic Teatre, L'Antic Teatre",41.387161,2.175952,3,4.8,8412,"cultural,theatres_and_entertainments,interesting_places,other_theatres, theatres_and_entertainments,cultural,interesting_places,other_theatres",theatres,Barcelona,ES,entertainment,2,theatres,29,3,3,3,0.000237756,9.037533408,0.000237728,0.003280309,1,0,1,8,28,4,105,4,0.858673084
"Les armes del virrei, Virreina Palace",41.382549,2.17181,2,4.5,2465,"historic,cultural,urban_environment,monuments_and_memorials,interesting_places,sculptures,monuments",art gallery,Barcelona,ES,culture,3,art gallery,1,1,3,3,0.001217039,7.810352684,0.001216299,0.003005944,1,0,0,7,37,6,592,3,0.251620203
Palau de la Música Catalana,41.387585,2.175232,3,4.1,48309,"theatres_and_entertainments,concert_halls,cultural,interesting_places",landmark,Barcelona,ES,entertainment,1,landmark,15,3,3,3,2.07E-05,10.78539386,2.07E-05,0.003087304,1,0,1,4,27,5,105,15,4.931245602
"Bishops Bridge, Pont del Bisbe",41.383278,2.176443,3,3.9,1121,"other,unclassified_objects,interesting_places,tourist_object",landmark,Barcelona,ES,culture,1,landmark,15,1,3,3,0.000892061,7.022868086,0.000891663,0.003546764,1,0,0,4,30,5,592,15,0.114428498
"Barcelona Erotic Museum, Erotic Museum",41.382244,2.172566,3,4.5,5887,"cultural,museums,interesting_places,other_museums",museums,Barcelona,ES,culture,2,museums,20,1,3,3,0.000339732,8.68067166,0.000339674,0.00297528,1,0,0,4,38,5,592,1,0.600928251
"""Topos V"", d'Eduardo Chillida, Barcelona Roman city walls, Capella de Santa Àgueda, Casa Padellà (Barcelona History Museum MUHBA), Cereria Subirà, Chapel of Santa Ágata, Mirador de muralla de Barcelona, Museu Provincial d'Antiguitats, Museum of the History of Barcelona, Padellàs's House, Palau Reial Major de Barcelona, Plaça de Ramon Berenguer el Gran, Ramon Berenguer III el Gran, Roman Wall, Santa Marta de Barcelona, Topos V",41.384132,2.177645,3,4.6,14932,"cultural,museums,interesting_places,history_museums, fortifications,defensive_walls,historic,interesting_places, historic,monuments_and_memorials,urban_environment,cultural,interesting_places,sculptures,monuments, historic_architecture,architecture,interesting_places,other_buildings_and_structures, museums,cultural,interesting_places,other_museums, palaces,architecture,historic_architecture,historic,monuments_and_memorials,interesting_places,monuments, religion,churches,interesting_places,other_churches","castles, churches, landmark, monuments, museums, sculptures",Barcelona,ES,religion,2,castles,3,2,3,3,0.000133941,9.611328808,0.000133932,0.004353969,1,1,0,34,429,64,223,2,1.524216178
"House in carrer Sant Domènec del Call, 7, Sinagoga Major de Barcelona",41.38259,2.175828,3,4.3,1074,"historic_architecture,architecture,interesting_places,other_buildings_and_structures, religion,synagogues,interesting_places",synagogues,Barcelona,ES,religion,2,synagogues,27,2,3,3,0.001862197,6.980075941,0.001860465,0.003492175,1,1,0,7,69,12,223,1,0.109630872
"Bombing of Barcelona, Plaça de Catalunya",41.387012,2.170033,3,4.4,199808,"battlefields,historic,historical_places,interesting_places",landmark,Barcelona,ES,culture,1,landmark,15,1,3,3,5.00E-06,12.20511719,5.00E-06,0.003872006,1,0,0,4,40,6,592,15,20.39583351
"MUHBA Temple d'August, Mont Tàber, Temple d'August",41.383362,2.177166,3,4.1,2594,"historic,monuments_and_memorials,archaeology,interesting_places,other_archaeological_sites,monuments, mountain_peaks,geological_formations,natural,interesting_places",landmark,Barcelona,ES,culture,1,landmark,15,1,3,3,0.000385505,7.861341796,0.000385431,0.004147698,1,0,0,10,50,7,592,15,0.264788157
Casa Bruno Cuadros,41.381432,2.173329,3,2.9,275,"architecture,historic_architecture,interesting_places,other_buildings_and_structures",landmark,Barcelona,ES,culture,1,landmark,15,1,3,3,0.003636364,5.620400866,0.003629768,0.003668687,1,0,0,4,18,3,592,15,0.028071219
Teatre Borràs,41.388847,2.17359,3,4.9,6246,"cultural,cinemas,theatres_and_entertainments,interesting_places",theatres,Barcelona,ES,entertainment,2,theatres,29,3,3,3,0.000320205,8.739856627,0.000320154,0.003751814,1,0,1,4,13,2,105,4,0.637573952
"Homenatge als castellers, Monument als Castellers",41.382038,2.177001,3,3.1,158,"historic,monuments_and_memorials,urban_environment,cultural,interesting_places,sculptures,monuments",sculptures,Barcelona,ES,culture,2,sculptures,26,1,3,3,0.012658228,5.068904202,0.012578782,0.004726843,1,0,0,7,49,6,592,4,0.016128192
"Palau Moxó, Palau Requesens",41.383148,2.178638,3,2.8,433,"palaces,architecture,historic_architecture,interesting_places",palaces,Barcelona,ES,culture,3,palaces,21,1,3,3,0.006928406,6.073044534,0.006904515,0.005589897,1,0,0,4,27,4,592,1,0.044199411
"Gran Saló Doré, Music Hall, Teatre Barcelona",41.387665,2.168333,1,2.6,52,"cinemas,cultural,theatres_and_entertainments,interesting_places, theatres_and_entertainments,cultural,interesting_places,other_theatres",concert hall,Barcelona,ES,entertainment,3,concert hall,8,3,3,3,0.057692308,3.970291914,0.056089467,0.005679235,1,0,1,8,44,7,105,1,0.005308012
Torre Urquinaona,41.389786,2.172883,3,3.3,232,"historic_architecture,architecture,interesting_places,other_buildings_and_structures",landmark,Barcelona,ES,culture,1,landmark,15,1,3,3,0.004310345,5.451038454,0.004301082,0.004714434,1,0,0,4,16,2,592,15,0.023681902
"Creu de l'Hospital de la Santa Creu, Jardins de Rubió i Lluch, Old Hospital de la Santa Creu, Old Hospital de la Santa Creu, Barcelona",41.381002,2.17,3,4.6,1355,"historic_architecture,architecture,interesting_places,other_buildings_and_structures, religion,other_temples,interesting_places","gardens, landmark",Barcelona,ES,religion,3,gardens,12,2,3,3,0.002214022,7.212294469,0.002211575,0.00532481,1,1,0,7,134,25,223,2,0.138314554
Teatre Romea,41.380531,2.171081,3,4.5,4040,"cultural,cinemas,theatres_and_entertainments,interesting_places",theatres,Barcelona,ES,entertainment,2,theatres,29,3,3,3,0.00049505,8.304247465,0.000494928,0.005123819,1,0,1,4,12,2,105,4,0.412391733
"Capella d'en Marcús, Farmàcia Santa Caterina",41.385843,2.179912,3,3.6,154,"historic_architecture,architecture,interesting_places,other_buildings_and_structures, religion,churches,interesting_places,other_churches",churches,Barcelona,ES,religion,1,churches,6,2,3,3,0.006493506,5.043425117,0.006472514,0.00655425,1,1,0,8,44,6,223,4,0.015719883
"Església de Sant Agustí de Barcelona, Parròquia de Sant Agustí",41.38018,2.172096,3,4,561,"religion,churches,interesting_places,catholic_churches",churches,Barcelona,ES,religion,1,churches,6,2,3,3,0.001782531,6.33150185,0.001780944,0.005089874,1,1,0,4,62,10,223,4,0.057265288
"Carrer de Montcada, Casa Berenguer d'Aguilar, Casa Gomis, European Museum of Modern Art, Museu Etnològic i de Cultures del Món, Palau del Marquès de Lió, Picasso Museum Barcelona",41.385114,2.180737,3,4.5,39763,"cultural,urban_environment,interesting_places,squares, historic_architecture,architecture,interesting_places,other_buildings_and_structures","art gallery, museums",Barcelona,ES,urban_space,3,art gallery,1,5,3,3,7.54E-05,10.59071726,7.54E-05,0.007337013,1,0,0,8,178,28,18,3,4.058894179
"Font de les Tres Gràcies, Plaça Reial",41.380093,2.175277,3,4.4,22896,"fountains,historic,monuments_and_memorials,urban_environment,cultural,interesting_places,sculptures,monuments",landmark,Barcelona,ES,culture,1,landmark,15,1,3,3,4.37E-05,10.03876118,4.37E-05,0.005347259,1,0,0,8,37,7,592,15,2.337158693
"Font del Carme, Placa en memòria a les víctimes del bombardeig de Barcelona de 1938",41.381359,2.168318,1,4.5,3,"fountains,historic,cultural,urban_environment,monuments_and_memorials,interesting_places,sculptures,monuments",landmark,Barcelona,ES,culture,1,landmark,15,1,3,3,0.333333333,1.386294361,0.287682072,0.006310452,1,0,0,8,83,15,592,15,0.000306231
"Monument, Plaça de George Orwell",41.380489,2.1773,2,3.8,2857,"historic,cultural,urban_environment,monuments_and_memorials,interesting_places,sculptures,monuments",public sculpture,Barcelona,ES,culture,1,public sculpture,23,1,3,3,0.000350018,7.957877358,0.000349957,0.006039149,1,0,0,7,32,5,592,2,0.291634451
"Chapel of Saint Christopher, MUHBA Porta de Mar i les Termes Romanes Portuàries",41.381504,2.179097,1,2.8,32,"religion,churches,interesting_places,other_churches",landmark,Barcelona,ES,religion,1,landmark,15,2,3,3,0.03125,3.496507561,0.030771659,0.006736989,1,1,0,4,79,13,223,15,0.003266469
"Muralla romana, Roman Wall",41.382061,2.179762,3,5,307,"fortifications,defensive_walls,historic,interesting_places",landmark,Barcelona,ES,culture,1,landmark,15,1,3,3,0.003257329,5.730099783,0.003252035,0.007050572,1,0,0,4,26,4,592,15,0.031337689
"A Francesc Soler i Rovirosa, A Joan Güell i Ferrer, Jardins de la Reina Victòria, Monument a Joan Güell",41.388772,2.167454,3,1,652,"historic,monuments_and_memorials,urban_environment,cultural,interesting_places,sculptures,monuments","gardens, monuments",Barcelona,ES,culture,3,gardens,12,1,3,3,0.004601227,6.481577129,0.004590674,0.006988455,1,0,0,7,103,19,592,2,0.066554309
"Jewish Historical Museum, Jewish Museum, Joods Historisch Kindermuseum, Pand met gevel onder rechte lijst met balustrade",52.367128,4.903757,3,4.2,6693,"cultural,museums,interesting_places,other_museums, historic_architecture,architecture,interesting_places,other_buildings_and_structures, museums,cultural,interesting_places,other_museums",museums,Amsterdam,NL,culture,2,museums,20,1,1,1,0.00029882,8.808966882,0.000298775,0.000583466,1,0,0,12,120,16,592,3,2.607751461
"De Dokwerker, The Dokwerker (Memories of the February strike)",52.367195,4.905015,1,2.5,95,"historic,burial_places,urban_environment,cultural,interesting_places,war_memorials,sculptures",monuments,Amsterdam,NL,culture,1,monuments,18,1,1,1,0.010526316,4.564348191,0.0104713,0.001000625,1,0,0,7,61,9,592,3,0.037014252
"Moses and Aaron Church (officially Church of St. Anthony of Padua), Mozes en Aäronkerk",52.368263,4.903196,3,4.7,121,"religion,churches,interesting_places,other_churches",churches,Amsterdam,NL,religion,1,churches,6,2,1,1,0.008264463,4.804021045,0.008230499,0.001121064,1,1,0,4,86,14,223,2,0.047144468
Hortusbrug,52.36734,4.907098,1,1.3,3,"bridges,architecture,interesting_places,other_bridges",landmark,Amsterdam,NL,urban_space,1,landmark,15,5,1,1,0.333333333,1.386294361,0.287682072,0.003009253,1,0,0,4,10,1,18,4,0.001168871
"Gedenkteken voormalig Nederlands-Israëlisch jongensweeshuis, Monument Megadlé Jethomiem",52.366966,4.900983,1,1,2,"historic,cultural,urban_environment,burial_places,interesting_places,installation,war_memorials,sculptures",landmark,Amsterdam,NL,culture,1,landmark,15,1,1,1,0.5,1.098612289,0.405465108,0.003180825,1,0,0,8,87,7,592,4,0.000779247
Blauwbrug,52.366333,4.900896,3,1.2,135,"view_points,other,bridges,architecture,interesting_places,other_bridges",landmark,Amsterdam,NL,urban_space,1,landmark,15,5,1,1,0.007407407,4.912654886,0.007380107,0.003445418,1,0,0,6,9,1,18,4,0.0525992
"Tehuis en kantoorgebouw in Neo-Hollandse Renaissance stijl ten behoeve van de Van Limmikstichting, The Shadow Wall",52.365189,4.90426,1,1.4,2,"historic_architecture,architecture,interesting_places,other_buildings_and_structures",walls,Amsterdam,NL,culture,1,walls,31,1,1,1,0.5,1.098612289,0.405465108,0.002416303,1,0,0,4,114,16,592,1,0.000779247
"Rembrandt House, Rembrandt House Museum",52.369366,4.901237,3,4,13301,"biographical_museums,historic_house_museums,cultural,museums,interesting_places,history_museums,art_galleries",museums,Amsterdam,NL,culture,2,museums,20,1,1,1,0.000150365,9.495669679,0.000150354,0.003363856,1,0,0,7,39,5,592,3,5.182384907
"Auschwitz Memorial, Memorial to Auschwitz Victims",52.367924,4.909234,3,2.9,607,"historic,monuments_and_memorials,burial_places,urban_environment,cultural,interesting_places,war_memorials,installation,monuments",monuments,Amsterdam,NL,culture,1,monuments,18,1,1,1,0.001647446,6.410174882,0.00164609,0.005144213,1,0,0,9,49,6,592,3,0.236501589
"Jewish WW2 resistance memorial, Monument to Jewish Resistance",52.367619,4.898892,1,3.3,86,"historic,monuments_and_memorials,burial_places,interesting_places,war_memorials,monuments",monuments,Amsterdam,NL,culture,1,monuments,18,1,1,1,0.011627907,4.465908119,0.011560822,0.005208035,1,0,0,6,61,8,592,3,0.033507639
"Amstel 220, Amsterdam, Museum six, Six Collection",52.365024,4.90068,3,2.1,369,"historic_architecture,architecture,interesting_places,other_buildings_and_structures, museums,cultural,interesting_places,other_museums",art gallery,Amsterdam,NL,culture,3,art gallery,1,1,1,1,0.008130081,5.913503006,0.00809721,0.004281609,1,0,0,8,49,7,592,1,0.143771147
"Herengracht 605, Amsterdam, Willet-Holthuysen, Willet-Holthuysen Museum",52.365602,4.899012,3,3.8,2626,"cultural,museums,interesting_places,art_galleries, historic_architecture,architecture,interesting_places,other_buildings_and_structures",museums,Amsterdam,NL,culture,2,museums,20,1,1,1,0.000761615,7.87359779,0.000761325,0.005466237,1,0,0,8,71,6,592,3,1.023151851
"Zuiderkerk, Zuiderkerk Tower - panoramic view from 1614 belfry, Zuiderkerkstoren",52.370256,4.89966,3,1.4,980,"architecture,towers,interesting_places,other_towers, religion,churches,interesting_places,other_churches","churches, watchtowers",Amsterdam,NL,religion,2,churches,6,2,1,1,0.002040816,6.88857246,0.002038736,0.005173774,1,1,0,8,80,10,223,2,0.381831231
Skinny Bridge,52.363583,4.902375,3,4.3,6455,"stone_bridges,bridges,interesting_places,architecture,moveable_bridges",landmark,Amsterdam,NL,urban_space,1,landmark,15,5,1,1,0.000154919,8.77276521,0.000154907,0.004371718,1,0,0,5,13,2,18,4,2.515021019
"Charing Cross, Charles I, Equestrian Statue of King Charles I, Kilometre zero plaque",51.507336,-0.127631,3,4,1008,"historic,monuments_and_memorials,interesting_places,monuments, historic,monuments_and_memorials,urban_environment,cultural,interesting_places,sculptures,monuments",sculptures,London,GB,culture,2,sculptures,26,1,13,13,0.001984127,6.91671502,0.001982161,0.000180712,1,0,0,11,84,13,592,5,0.15509283
"Equestrian Statue of King George IV, Equestrian statue of George IV, Fountain of Trafaglar, Fourth Plinth, George IV, Hahn/Cock, Jellicoe Memorial Fountain, The Fourth Plinth, Trafalgar Square",51.508178,-0.128171,3,4.7,129271,"architecture,historic_architecture,interesting_places,other_buildings_and_structures, fountains,historic,cultural,urban_environment,monuments_and_memorials,interesting_places,sculptures,monuments, historic,cultural,urban_environment,monuments_and_memorials,interesting_places,sculptures,monuments, urban_environment,cultural,interesting_places,squares","fountains, landmark, sculptures",London,GB,culture,2,fountains,10,1,13,13,1.55E-05,11.76967399,1.55E-05,0.000861931,1,0,0,23,192,27,592,2,19.88988614
Admiralty Arch,51.506737,-0.128626,3,3,1010,"architecture,historic_architecture,historic,monuments_and_memorials,interesting_places,monuments,triumphal_archs",landmark,London,GB,culture,1,landmark,15,1,13,13,0.000990099,6.918695219,0.000989609,0.001059172,1,0,0,7,14,2,592,4,0.155400554
"One & Other, The Fourth Plinth",51.50819,-0.12873,3,2.9,103,"historic,cultural,urban_environment,monuments_and_memorials,interesting_places,installation,sculptures,monuments",sculptures,London,GB,culture,2,sculptures,26,1,13,13,0.019417476,4.644390899,0.019231362,0.001220246,1,0,0,8,30,6,592,5,0.015847779
Captain James Cook,51.506313,-0.129275,1,2.2,32,"historic,monuments_and_memorials,urban_environment,cultural,interesting_places,sculptures,monuments",monuments,London,GB,culture,1,monuments,18,1,13,13,0.03125,3.496507561,0.030771659,0.001832265,1,0,0,7,18,3,592,14,0.004923582
"National Gallery, The National Gallery",51.508884,-0.128374,3,4.9,53708,"cultural,museums,interesting_places,art_galleries",museums,London,GB,culture,2,museums,20,1,13,13,3.72E-05,10.89133586,3.72E-05,0.001591142,1,0,0,4,38,5,592,2,8.263616781
"St Martin-in-the-Fields, St Martin-in-the-Fields Church, London",51.508831,-0.126676,3,4.7,4052,"religion,churches,interesting_places,other_churches",churches,London,GB,religion,1,churches,6,2,13,13,0.000246792,8.307212627,0.000246762,0.001819653,1,1,0,4,63,6,223,3,0.623448559
"A Conversation with Oscar Wilde, Oscar Wilde Statue",51.508701,-0.125894,1,3.4,45,"historic,cultural,urban_environment,monuments_and_memorials,burial_places,interesting_places,other_burial_places,sculptures,monuments",sculptures,London,GB,culture,2,sculptures,26,1,13,13,0.044444444,3.828641396,0.043485112,0.002307691,1,0,0,9,51,8,592,5,0.006923787
Edith Cavell Memorial,51.509323,-0.127183,1,2.1,50,"historic,monuments_and_memorials,burial_places,urban_environment,cultural,interesting_places,other_burial_places,sculptures,monuments",monuments,London,GB,culture,1,monuments,18,1,13,13,0.02,3.931825633,0.019802627,0.002019559,1,0,0,9,21,3,592,14,0.007693097
National Portrait Gallery,51.509399,-0.1281,3,4.9,13970,"museums,cultural,interesting_places,art_galleries",museums,London,GB,culture,2,museums,20,1,13,13,0.000143164,9.544739032,0.000143154,0.002021386,1,0,0,4,25,3,592,2,2.149451226
"George Duke of Cambridge statue, Prince George, Duke of Cambridge",51.505222,-0.126586,1,1.2,28,"historic,monuments_and_memorials,burial_places,urban_environment,cultural,interesting_places,other_burial_places,sculptures,monuments",monuments,London,GB,culture,1,monuments,18,1,13,13,0.035714286,3.36729583,0.03509132,0.002493488,1,0,0,9,65,10,592,14,0.004308134
"Carlton House, Carlton House Terrace, Duke of York Column, Duke of York Column;Frederick, Duke of York",51.506354,-0.131741,3,3.2,1308,"architecture,historic_architecture,interesting_places,destroyed_objects, cultural,urban_environment,interesting_places,squares, historic,monuments_and_memorials,burial_places,urban_environment,cultural,interesting_places,other_burial_places,sculptures,monuments, other,unclassified_objects,interesting_places,historic_object",monuments,London,GB,culture,1,monuments,18,1,13,13,0.000764526,7.177018766,0.000764234,0.00407745,1,0,0,21,102,16,592,14,0.20125141
"ODEON Luxe Haymarket, Odeon Haymarket, Odeon Panton Street",51.509584,-0.131212,2,3.8,2424,"architecture,historic_architecture,cinemas,cultural,theatres_and_entertainments,interesting_places,destroyed_objects, cultural,cinemas,theatres_and_entertainments,interesting_places",cinemas,London,GB,entertainment,2,cinemas,7,3,13,13,0.000825083,7.793586803,0.000824743,0.004051123,1,0,1,11,58,8,105,4,0.372961329
"Crimean War Memorial, Guards Crimean War Memorial",51.507389,-0.132689,3,1.5,446,"historic,burial_places,urban_environment,cultural,interesting_places,war_memorials,sculptures",monuments,London,GB,culture,1,monuments,18,1,13,13,0.002242152,6.102558595,0.002239642,0.004889012,1,0,0,7,49,7,592,14,0.068622423
Guards Memorial,51.504459,-0.129517,3,4.8,209,"historic,monuments_and_memorials,burial_places,urban_environment,cultural,interesting_places,war_memorials,sculptures,monuments",monuments,London,GB,culture,1,monuments,18,1,13,13,0.004784689,5.347107531,0.004773279,0.003405521,1,0,0,9,15,2,592,14,0.032157144
"James Outram statue, Sir James Outram, Statue of James Outram",51.506277,-0.123086,1,4.2,44,"historic,cultural,urban_environment,monuments_and_memorials,interesting_places,sculptures,monuments, historic,monuments_and_memorials,cultural,urban_environment,interesting_places,sculptures,monuments",sculptures,London,GB,culture,2,sculptures,26,1,13,13,0.045454545,3.80666249,0.044451762,0.004845918,1,0,0,14,61,10,592,5,0.006769925
"York Water Gate, York Watergate",51.508125,-0.122905,1,2,48,"fortifications,defensive_walls,historic,interesting_places",landmark,London,GB,culture,1,landmark,15,1,13,13,0.020833333,3.891820298,0.020619287,0.004948399,1,0,0,4,31,5,592,4,0.007385373
"Bust of Samuel Plimsoll, Henry Bartle Frere, Henry Bartle Frere Statue, Samuel Plimsoll, Statue of Henry Bartle Frere",51.505549,-0.123292,1,3.4,85,"historic,cultural,urban_environment,monuments_and_memorials,interesting_places,sculptures,monuments, historic,monuments_and_memorials,cultural,urban_environment,interesting_places,sculptures,monuments, historic,monuments_and_memorials,interesting_places,monuments","monuments, public sculpture",London,GB,culture,1,monuments,18,1,13,13,0.011764706,4.454347296,0.01169604,0.004873219,1,0,0,18,117,18,592,14,0.013078264
"Alhambra Theatre, ODEON Luxe Leicester Square",51.51049,-0.1293,3,4.9,940,"theatres_and_entertainments,cultural,interesting_places,other_theatres",cinemas,London,GB,entertainment,2,cinemas,7,3,13,13,0.00212766,6.84694314,0.0021254,0.003434836,1,0,1,4,45,6,105,4,0.144630218
"Leicester Square, Shakespeare, Shakespeare Fountain, Shakespeare Water Fountain",51.510396,-0.130109,1,4.5,30,"fountains,historic,monuments_and_memorials,urban_environment,cultural,interesting_places,sculptures,monuments, gardens_and_parks,cultural,urban_environment,interesting_places",fountains,London,GB,nature,2,fountains,10,4,13,13,0.066666667,3.433987204,0.064538521,0.003782525,1,0,0,12,79,8,28,2,0.004615858
"Statue of William Tyndale, Victoria Embankment Gardens: Whitehall Gardens",51.505066,-0.123609,2,4.2,1942,"historic,cultural,urban_environment,monuments_and_memorials,interesting_places,sculptures,monuments",landmark,London,GB,culture,1,landmark,15,1,13,13,0.000514933,7.571988449,0.0005148,0.004797086,1,0,0,7,73,9,592,4,0.298799877
"The Women of WWII, The Women of World War II",51.503517,-0.12615,3,4.6,245,"historic,burial_places,urban_environment,cultural,interesting_places,war_memorials,sculptures",monuments,London,GB,culture,1,monuments,18,1,13,13,0.004081633,5.505331536,0.004073326,0.004219027,1,0,0,7,44,10,592,14,0.037696174
"409 And 410, Strand Wc2, Adelphi Theatre, Theatre Royal Adelphi",51.510116,-0.122888,2,5,19184,"architecture,historic_architecture,theatres_and_entertainments,cultural,interesting_places,destroyed_objects,other_theatres, historic_architecture,architecture,interesting_places,other_buildings_and_structures",theatres,London,GB,entertainment,2,theatres,29,3,13,13,0.000104254,9.861884003,0.000104249,0.005612878,1,0,1,11,63,10,105,3,2.951687353
"Church of Notre Dame de France RC, Notre-Dame de France, Prince Charles Cinema",51.511422,-0.130045,3,4.7,3762,"cultural,cinemas,theatres_and_entertainments,interesting_places, religion,churches,interesting_places,catholic_churches","churches, cinemas",London,GB,religion,2,churches,6,2,13,13,0.000531632,8.232971791,0.000531491,0.004606138,1,1,0,8,78,13,223,3,0.578828598
"George VI and Queen Elizabeth Memorial, King George VI, King George VI & Queen Elizabeth,The Queen Mother Memorial",51.505158,-0.133768,3,1.3,262,"historic,cultural,urban_environment,monuments_and_memorials,burial_places,interesting_places,other_burial_places,sculptures,monuments, historic,monuments_and_memorials,urban_environment,cultural,interesting_places,sculptures,monuments",monuments,London,GB,culture,1,monuments,18,1,13,13,0.003816794,5.572154032,0.003809529,0.006375232,1,0,0,16,114,18,592,14,0.040311827
"5, Great Newport Street Wc2, Agatha Christie Memorial, Agatha Christie memorial, Arts Theatre",51.511894,-0.127414,3,3.8,2257,"historic,monuments_and_memorials,burial_places,urban_environment,cultural,interesting_places,other_burial_places,sculptures,monuments, historic_architecture,architecture,interesting_places,other_buildings_and_structures","monuments, theatres",London,GB,culture,2,monuments,18,1,13,13,0.000886132,7.722234745,0.00088574,0.004510547,1,0,0,13,93,13,592,14,0.347266386
Royal Air Force Memorial,51.503998,-0.123038,3,4.4,208,"historic,monuments_and_memorials,burial_places,urban_environment,cultural,interesting_places,war_memorials,sculptures,monuments",monuments,London,GB,culture,1,monuments,18,1,13,13,0.004807692,5.342334252,0.004796172,0.005852371,1,0,0,9,24,4,592,14,0.032003282
"Anglo-Belgian War Memorial, Cleopatra's Needle, Monument of Belgium's Gratitude",51.508582,-0.120542,3,1.9,785,"historic,monuments_and_memorials,burial_places,urban_environment,cultural,interesting_places,war_memorials,sculptures,monuments, historic,monuments_and_memorials,urban_environment,cultural,interesting_places,sculptures,monuments","landmark, monuments",London,GB,culture,1,landmark,15,1,13,13,0.001273885,6.666956792,0.001273074,0.007353617,1,0,0,16,79,9,592,4,0.120781619
"Beauty < Immortality, Eros (Shaftesbury Memorial Fountain), Piccadilly Circus, Shaftesbury Memorial Fountain",51.509857,-0.134524,3,4.8,3156,"fountains,historic,monuments_and_memorials,burial_places,urban_environment,cultural,interesting_places,other_burial_places,sculptures,monuments, historic,monuments_and_memorials,burial_places,interesting_places,other_burial_places,monuments, railway_stations,industrial_facilities,interesting_places",sculptures,London,GB,culture,2,sculptures,26,1,13,13,0.000633714,8.057377489,0.000633513,0.007158842,1,0,0,19,108,12,592,5,0.485588265
"St Paul's Church, St Paul’s Church Covent Garden",51.511528,-0.123719,3,1.5,892,"religion,churches,interesting_places,other_churches",churches,London,GB,religion,1,churches,6,2,13,13,0.001121076,6.794586581,0.001120448,0.005804735,1,1,0,4,48,8,223,3,0.137244846
The Cenotaph,51.50267,-0.126087,3,1.2,756,"historic,monuments_and_memorials,burial_places,interesting_places,war_memorials,monuments",monuments,London,GB,culture,1,monuments,18,1,13,13,0.001322751,6.629363253,0.001321877,0.005030633,1,0,0,6,12,2,592,14,0.116319623
Picturehouse Central,51.510635,-0.133644,2,4.4,4396,"cultural,cinemas,theatres_and_entertainments,interesting_places",cinemas,London,GB,entertainment,2,cinemas,7,3,13,13,0.000454959,8.388677769,0.000454856,0.006679638,1,0,1,4,20,2,105,4,0.676377064
Savoy Theatre,51.510189,-0.120999,3,4,5223,"cultural,theatres_and_entertainments,interesting_places,other_theatres",theatres,London,GB,entertainment,2,theatres,29,3,13,13,0.000382922,8.561018671,0.000382849,0.007350655,1,0,1,4,13,2,105,3,0.803620884
"Churchill Museum and Cabinet War Rooms, Robert Clive, Robert Clive Memorial, Steps And Parapets With Lamps At West End",51.502279,-0.129257,3,4.8,201,"biographical_museums,cultural,museums,interesting_places,military_museums, historic,monuments_and_memorials,urban_environment,cultural,interesting_places,sculptures,monuments, historic_architecture,architecture,interesting_places,other_buildings_and_structures",monuments,London,GB,culture,1,monuments,18,1,13,13,0.004975124,5.308267697,0.004962789,0.005324236,1,0,0,16,118,19,592,14,0.030926249
"Battle of Britain Memorial, The Battle of Britain Monument",51.502937,-0.123428,3,4.3,189,"historic,monuments_and_memorials,urban_environment,cultural,interesting_places,sculptures,monuments",monuments,London,GB,culture,1,monuments,18,1,13,13,0.005291005,5.247024072,0.005277057,0.00624762,1,0,0,7,58,9,592,14,0.029079906
Curzon Soho,51.512657,-0.130608,2,4.6,1692,"cultural,cinemas,theatres_and_entertainments,interesting_places",cinemas,London,GB,entertainment,2,cinemas,7,3,13,13,0.001182033,7.434257382,0.001181335,0.005959942,1,0,1,4,11,2,105,4,0.260334393
"Ambassadors, The Ambassadors Theatre",51.513039,-0.127825,3,4.3,1077,"cultural,theatres_and_entertainments,interesting_places,other_theatres",theatres,London,GB,entertainment,2,theatres,29,3,13,13,0.00185701,6.982862751,0.001855288,0.005639055,1,0,1,4,36,4,105,3,0.165709304
"Church of St. Louis of the French in Lisbon, Church of São Luís dos Franceses",38.716202,-9.140084,1,1.9,75,"religion,churches,interesting_places,catholic_churches",churches,Lisbon,PT,religion,1,churches,6,2,12,12,0.013333333,4.33073334,0.013245226,0.000721845,1,1,0,4,77,15,223,14,0.016984887
"Church of Our Lady of Pena, Church of São Luís dos Franceses",38.717758,-9.139282,3,3.1,143,"religion,churches,interesting_places,catholic_churches",churches,Lisbon,PT,religion,1,churches,6,2,12,12,0.006993007,4.9698133,0.006968669,0.001057397,1,1,0,4,60,12,223,14,0.032384519
"Aos Restauradores de 1640, Monumento dos Restauradores",38.715752,-9.141685,3,4.6,3648,"historic,monuments_and_memorials,burial_places,urban_environment,cultural,interesting_places,war_memorials,sculptures,monuments",monuments,Lisbon,PT,culture,1,monuments,18,1,12,12,0.000274123,8.202208436,0.000274085,0.002122293,1,0,0,9,54,7,592,13,0.826144925
"Estaus Palace, Teatro Nacional Dona Maria II",38.714788,-9.139787,3,4.5,3174,"cultural,theatres_and_entertainments,interesting_places,other_theatres, palaces,architecture,historic_architecture,interesting_places",theatres,Lisbon,PT,entertainment,2,theatres,29,3,12,12,0.00063012,8.063062911,0.000629922,0.002115021,1,0,1,8,44,7,105,6,0.718800436
"Igreja Paroquial de São José, Igreja de São José",38.718037,-9.142435,1,2,64,"religion,churches,interesting_places,catholic_churches",churches,Lisbon,PT,religion,1,churches,6,2,12,12,0.015625,4.17438727,0.015504187,0.002778308,1,1,0,4,48,9,223,14,0.014493771
Teatro Eden,38.715248,-9.142028,3,3.1,151,"accomodations,cinemas,cultural,theatres_and_entertainments,interesting_places,other_hotels",cinemas,Lisbon,PT,entertainment,2,cinemas,7,3,12,12,0.013245033,5.023880521,0.013158084,0.002693973,1,0,1,6,11,2,105,2,0.03419624
"Dom Pedro IV, Praça Dom Pedro IV",38.713799,-9.139368,3,4.5,15592,"historic,monuments_and_memorials,cultural,urban_environment,interesting_places,sculptures,monuments",monuments,Lisbon,PT,culture,1,monuments,18,1,12,12,6.41E-05,9.654577375,6.41E-05,0.003146303,1,0,0,7,32,7,592,13,3.531044866
"Jardim de São Pedro de Alcântara, Miradouro de São Pedro de Alcântara",38.715305,-9.144257,3,5,29223,"urban_environment,gardens_and_parks,cultural,interesting_places",public sculpture,Lisbon,PT,nature,1,public sculpture,23,4,12,12,3.42E-05,10.28274557,3.42E-05,0.004639771,1,0,0,4,69,12,28,1,6.617991541
"Animatógrafo do Rossio, Arco do Bandeira, Ourivesaria Ferreira Marques & Filhos",38.712782,-9.139028,1,4.6,44,"historic_architecture,architecture,interesting_places,other_buildings_and_structures, wall_painting,urban_environment,cultural,cinemas,theatres_and_entertainments,interesting_places",landmark,Lisbon,PT,entertainment,1,landmark,15,3,12,12,0.022727273,3.80666249,0.022472856,0.004209312,1,0,1,10,79,11,105,9,0.009964467
"Carioca, Church of Saint Roch, Igreja de São Roque, O Cauteleiro",38.713375,-9.14334,3,4.5,5893,"architecture,historic_architecture,interesting_places,cafes,foods,tourist_facilities,other_buildings_and_structures, religion,churches,cultural,museums,interesting_places,other_museums,catholic_churches","churches, monuments",Lisbon,PT,religion,1,churches,6,2,12,12,0.000169693,8.681690163,0.000169679,0.004925365,1,1,0,14,64,11,223,14,1.334559222
Santa Justa Lift,38.712116,-9.139374,3,4.6,53134,"cultural,urban_environment,interesting_places,squares",landmark,Lisbon,PT,urban_space,1,landmark,15,5,12,12,1.88E-05,10.88059112,1.88E-05,0.00481283,1,0,0,4,16,3,18,9,12.03300012
"Avenida da Liberdade, Monument Deads of Great War, Monumento aos Mortos da Grande Guerra",38.719534,-9.145282,3,4.5,1526,"historic,historical_places,cultural,urban_environment,interesting_places,historic_settlements,squares, historic,monuments_and_memorials,burial_places,urban_environment,cultural,interesting_places,war_memorials,sculptures,monuments",monuments,Lisbon,PT,culture,1,monuments,18,1,12,12,0.000655308,7.331060305,0.000655093,0.005991985,1,0,0,16,88,14,592,13,0.345585843
"Carmo Archaeological Museum, Chafariz do Carmo, Chafariz do Largo do Carmo, Largo do Carmo",38.711978,-9.140748,3,4,19952,"cultural,museums,interesting_places,other_museums, fountains,historic,monuments_and_memorials,urban_environment,cultural,interesting_places,sculptures,monuments, other,unclassified_objects,interesting_places,tourist_object","monuments, public sculpture",Lisbon,PT,culture,1,monuments,18,1,12,12,5.01E-05,9.901134787,5.01E-05,0.004994516,1,0,0,16,90,14,592,13,4.518432989
"Maria Vitória Theater, Parque Mayer, Teatro Maria Victoria, Teatro Variedades",38.718955,-9.145859,3,4.8,1704,"architecture,historic_architecture,cultural,theatres_and_entertainments,interesting_places,other_theatres,restaurants,foods,tourist_facilities,other_buildings_and_structures, cultural,theatres_and_entertainments,interesting_places,other_theatres, urban_environment,cultural,interesting_places,amusements,amusement_parks,squares",theatres,Lisbon,PT,entertainment,2,theatres,29,3,12,12,0.001173709,7.44132039,0.001173021,0.006303388,1,0,1,20,77,10,105,6,0.385896643
"Igreja paroquial de São Cristóvão, Parish Church of Saint Christopher and Saint Lawrence",38.712807,-9.135547,3,4.4,131,"religion,churches,interesting_places,catholic_churches",churches,Lisbon,PT,religion,1,churches,6,2,12,12,0.007633588,4.882801923,0.0076046,0.005975053,1,1,0,4,88,13,223,14,0.029666937
"Capitólio, Teatro Capitólio",38.718826,-9.146617,3,3.9,1561,"cultural,cinemas,theatres_and_entertainments,interesting_places",theatres,Lisbon,PT,entertainment,2,theatres,29,3,12,12,0.00128123,7.35372233,0.00128041,0.006987672,1,0,1,4,27,3,105,6,0.353512124
"Capela de Nossa Senhora do Monte, Chapel of Our Lady of the Mountain",38.719276,-9.132437,3,2.6,163,"religion,churches,interesting_places,other_churches",churches,Lisbon,PT,religion,1,churches,6,2,12,12,0.006134969,5.099866428,0.006116227,0.007832097,1,1,0,4,68,13,223,14,0.036913822
"A Brasileira, Casa Havaneza, Chiado, Fernando Pessoa, Statue of António Ribeiro",38.710638,-9.142149,3,4.3,4095,"architecture,historic_architecture,interesting_places,cafes,foods,tourist_facilities,other_buildings_and_structures, historic,monuments_and_memorials,cultural,urban_environment,interesting_places,sculptures,monuments, historic_architecture,architecture,interesting_places,other_buildings_and_structures",monuments,Lisbon,PT,culture,1,monuments,18,1,12,12,0.0002442,8.317766167,0.00024417,0.006653619,1,0,0,18,79,11,592,13,0.927374854
"Palacete Ribeiro da Cunha, Real Fado Concerts",38.716919,-9.148376,3,2.9,344,"palaces,architecture,historic_architecture,interesting_places,manor_houses",concert hall,Lisbon,PT,miscellaneous,3,entertainment,8,3,12,12,0.00872093,5.843544417,0.008683122,0.008476021,1,0,1,5,45,7,105,2,0.077904017
"Monumento a Camões, Praça Luís de Camões",38.710571,-9.143483,3,4,27723,"historic,monuments_and_memorials,urban_environment,cultural,interesting_places,sculptures,monuments",landmark,Lisbon,PT,culture,1,landmark,15,1,12,12,3.61E-05,10.23005374,3.61E-05,0.007272835,1,0,0,7,40,7,592,9,6.278293792
"Jardim Augusto Gil, Jardim da Graça",38.716038,-9.131026,3,4.4,299,"urban_environment,gardens_and_parks,cultural,interesting_places",parks,Lisbon,PT,nature,1,parks,22,4,12,12,0.003344482,5.703782475,0.003338902,0.008915768,1,0,0,4,35,6,28,7,0.067713085
"Arco do Castelo, São Jorge Castle",38.712151,-9.132886,3,1.1,438,"fortifications,defensive_walls,historic,interesting_places,castles",landmark,Lisbon,PT,culture,1,landmark,15,1,12,12,0.002283105,6.084499413,0.002280503,0.00847049,1,0,0,5,33,6,592,9,0.099191743
Teatro Nacional de São Carlos,38.709446,-9.141666,3,3.7,1585,"theatres_and_entertainments,cultural,interesting_places,opera_houses",theatres,Lisbon,PT,entertainment,2,theatres,29,3,12,12,0.00126183,7.368970402,0.001261035,0.007660344,1,0,1,4,29,5,105,6,0.358947288
"Leopardo Filmes, Lápides das Pedras Negras",38.710369,-9.13492,1,4.7,5,"megaliths,historic,archaeology,interesting_places",cinemas,Lisbon,PT,miscellaneous,2,entertainment,7,3,12,12,0.4,1.791759469,0.336472237,0.00821306,1,0,1,4,42,6,105,2,0.001132326
"Largo do Barão de Quintela, Statue of Eça de Queirós",38.709671,-9.143349,1,3.9,41,"gardens_and_parks,cultural,urban_environment,interesting_places",monuments,Lisbon,PT,nature,1,monuments,18,4,12,12,0.024390244,3.737669618,0.024097552,0.008009622,1,0,0,4,52,10,28,13,0.009285072
"São Luiz Teatro Municipal, Teatro São Luiz",38.709301,-9.1424,3,3.6,1614,"theatres_and_entertainments,cultural,interesting_places,other_theatres",theatres,Lisbon,PT,entertainment,2,theatres,29,3,12,12,0.001239157,7.387090236,0.00123839,0.007999675,1,0,1,4,42,7,105,6,0.365514778
"Cinemateca, Cinemateca Júnior",38.720833,-9.148681,1,2,38,"cultural,cinemas,museums,theatres_and_entertainments,interesting_places,other_museums",cinemas,Lisbon,PT,culture,2,cinemas,7,1,12,12,0.052631579,3.663561646,0.051293294,0.009621562,1,0,0,6,29,3,592,2,0.008605676
"Church of Saint Anthony of Lisbon, Escultura de Santo António, Saint Anthony's Church, Santo António Church",38.710033,-9.133885,3,4,6634,"historic,churches,urban_environment,other_churches,religion,monuments_and_memorials,cultural,interesting_places,sculptures,monuments, religion,churches,cultural,museums,interesting_places,other_museums,other_churches, religion,churches,interesting_places,catholic_churches","churches, sculptures",Lisbon,PT,religion,2,churches,6,2,12,12,0.000301477,8.800113947,0.000301432,0.009128851,1,1,0,21,107,16,223,14,1.50236991
"Money Museum, Museu do Dinheiro",38.708599,-9.138889,2,4.7,4160,"religion,churches,cultural,museums,interesting_places,other_museums,other_churches",museums,Lisbon,PT,religion,2,museums,20,2,12,12,0.000480769,8.333510709,0.000480653,0.00836234,1,1,0,7,31,5,223,5,0.94209509
"Church of Saint Catherine, Igreja de Santa Catarina",38.71117,-9.148267,3,1.2,559,"religion,churches,interesting_places,other_churches",churches,Lisbon,PT,religion,1,churches,6,2,12,12,0.001788909,6.327936784,0.001787311,0.010140986,0,1,0,4,51,8,223,14,0.126594028
"Church of Saint James, Igreja de Santa Luzia, Igreja de Santiago, Jardim Júlio de Castilho, Miradouro de Santa Luzia, Museu de Artes Decorativas, Palácio Azurara, Registo de Santa Luzia",38.711833,-9.130489,3,3.1,406,"palaces,architecture,historic_architecture,cultural,museums,interesting_places,other_museums, religion,churches,interesting_places,catholic_churches, view_points,other,interesting_places, wall_painting,religion,churches,urban_environment,cultural,interesting_places,other_churches","art gallery, churches, parks",Lisbon,PT,religion,3,art gallery,1,2,12,12,0.007389163,6.008813185,0.007361997,0.010688377,0,1,0,21,185,29,223,3,0.091944857
Arco da Rua Augusta,38.708439,-9.136818,3,5,24647,"architecture,historic_architecture,historic,monuments_and_memorials,cultural,urban_environment,interesting_places,sculptures,monuments,triumphal_archs",monuments,Lisbon,PT,culture,1,monuments,18,1,12,12,4.06E-05,10.11245104,4.06E-05,0.009004846,1,0,0,10,19,4,592,13,5.581686942
"Cadeia do Aljube, Museum Aljube Resistência e Liberdade",38.710178,-9.132553,3,3.2,1464,"cultural,museums,interesting_places,other_museums",museums,Lisbon,PT,culture,2,museums,20,1,12,12,0.00136612,7.289610521,0.001365188,0.009958097,1,0,0,4,55,8,592,5,0.331545003
"Pillory of Lisbon, Praça do Enrike Dj",38.708042,-9.139223,3,4.6,152,"historic_architecture,architecture,interesting_places,other_buildings_and_structures",monuments,Lisbon,PT,culture,1,monuments,18,1,12,12,0.006578947,5.030437921,0.0065574,0.008883833,1,0,0,4,37,7,592,13,0.034422705
"Jardim Júlio de Castilho, Miradouro de Santa Luzia",38.711742,-9.130216,3,5,132,"view_points,other,interesting_places",parks,Lisbon,PT,nature,1,parks,22,4,12,12,0.007575758,4.890349128,0.007547206,0.010972002,0,0,0,3,50,8,28,7,0.029893402
Jardim Fialho de Almeida,38.71497,-9.151692,3,1.2,108,"urban_environment,gardens_and_parks,cultural,interesting_places",parks,Lisbon,PT,nature,1,parks,22,4,12,12,0.009259259,4.691347882,0.009216655,0.011948898,0,0,0,4,24,4,28,7,0.024458238
"Equestrian Statue of King José I, Estátua equestre de D. José I, Ribeira Palace",38.70753,-9.13648,3,4.5,914,"historic,monuments_and_memorials,urban_environment,cultural,interesting_places,sculptures,monuments, palaces,architecture,historic_architecture,interesting_places",monuments,Lisbon,PT,culture,1,monuments,18,1,12,12,0.001094092,6.818924065,0.001093494,0.009974633,1,0,0,11,79,14,592,13,0.206989162
"Atelier Museu Júlio Pomar, Atelier-Museu Júlio Pomar",38.711246,-9.150414,3,3.1,221,"cultural,museums,interesting_places,art_galleries",art gallery,Lisbon,PT,culture,3,art gallery,1,1,12,12,0.013574661,5.402677382,0.013483351,0.011937835,0,0,0,4,52,7,592,3,0.050048802
"Church São Miguel, St. Michael's Church",38.711163,-9.12944,3,4.6,204,"religion,churches,interesting_places,catholic_churches",churches,Lisbon,PT,religion,1,churches,6,2,12,12,0.004901961,5.323009979,0.004889986,0.011929995,0,1,0,4,39,6,223,14,0.046198894
Igreja de Santo Estêvão,38.712151,-9.1279,1,3.3,88,"religion,churches,interesting_places,catholic_churches",churches,Lisbon,PT,religion,1,churches,6,2,12,12,0.011363636,4.48863637,0.011299555,0.012905541,0,1,0,4,23,4,223,14,0.019928935
Cais das Colunas,38.706753,-9.136175,3,4.7,4302,"lagoons,interesting_places,natural,water",landmark,Lisbon,PT,nature,1,landmark,15,4,12,12,0.00023245,8.367067733,0.000232423,0.010809127,0,0,0,4,16,3,28,9,0.974253143
"Chafariz d'El Rei, Chafariz d'El-Rei, Palace of the Chafariz d'El Rei",38.709787,-9.129509,3,3.2,858,"fountains,historic,monuments_and_memorials,urban_environment,cultural,interesting_places,sculptures,monuments, palaces,architecture,historic_architecture,accomodations,interesting_places,other_hotels",landmark,Lisbon,PT,culture,1,landmark,15,1,12,12,0.001165501,6.755768922,0.001164822,0.012592365,0,0,0,14,69,11,592,9,0.194307112
"Duke of Terceira, Duque da Terceira",38.706509,-9.143535,2,4.5,189,"cultural,urban_environment,interesting_places,sculptures",monuments,Lisbon,PT,culture,1,monuments,18,1,12,12,0.005291005,5.247024072,0.005277057,0.011008456,0,0,0,4,35,6,592,13,0.042801916
"Camilo Castelo Branco, Statue of Camilo Castelo Branco",38.725479,-9.148346,1,3.9,11,"historic,monuments_and_memorials,urban_environment,cultural,interesting_places,sculptures,monuments",sculptures,Lisbon,PT,culture,2,sculptures,26,1,12,12,0.181818182,2.48490665,0.167054085,0.01203886,0,0,0,7,54,8,592,1,0.002491117
"Estação Ferroviária do Sul e Sueste, Estação Fluvial de Sul-Sueste",38.706707,-9.133951,1,3.1,88,"railway_stations,industrial_facilities,interesting_places",railway stations,Lisbon,PT,culture,2,railway stations,24,1,12,12,0.022727273,4.48863637,0.022472856,0.011802027,0,0,0,3,66,10,592,1,0.019928935
"Edifício da Antiga Estação Elevatória de Águas de Alfama, Fado Museum",38.711086,-9.12762,2,4.9,5307,"historic_architecture,architecture,interesting_places,other_buildings_and_structures",museums,Lisbon,PT,culture,2,museums,20,1,12,12,0.000376861,8.576970395,0.00037679,0.013586795,0,0,0,4,69,11,592,5,1.201850635
Chafariz do Largo do Rato,38.719925,-9.154076,1,2,10,"fountains,historic,monuments_and_memorials,urban_environment,cultural,interesting_places,sculptures,monuments",landmark,Lisbon,PT,culture,1,landmark,15,1,12,12,0.1,2.397895273,0.09531018,0.014495158,0,0,0,8,25,5,592,9,0.002264652
"Marques De Pombal, Marquess of Pombal Square",38.725292,-9.150026,3,4.2,8335,"historic,monuments_and_memorials,cultural,urban_environment,interesting_places,sculptures,monuments",monuments,Lisbon,PT,culture,1,monuments,18,1,12,12,0.000119976,9.028338764,0.000119969,0.013151484,0,0,0,7,44,7,592,13,1.887587157
"Church of Santa Engrácia, National Pantheon",38.714966,-9.124701,3,4.2,11073,"religion,historic,churches,burial_places,interesting_places,catholic_churches,mausoleums",monuments,Lisbon,PT,religion,1,monuments,18,2,12,12,9.03E-05,9.312355297,9.03E-05,0.015321552,0,1,0,7,43,6,223,13,2.507648781
