name,address,city,country,category,lat,lon,rating,user_ratings_total
Arc de Triomphe,"Pl. Charles de Gaulle, 75008 Paris, France",Paris,FR,monuments,48.873792,2.295028,4.7,260986.0
Panthéon,"Pl. du Panthéon, 75005 Paris, France",Paris,FR,monuments,48.846222,2.346414,4.6,59548.0
Notre-Dame Cathedral of Paris,"6 Parvis Notre-Dame - Pl. Jean-Paul II, 75004 Paris, France",Paris,FR,monuments,48.852968,2.349902,4.7,60631.0
Eiffel Tower,"Av. Gustave Eiffel, 75007 Paris, France",Paris,FR,monuments,48.85837,2.294481,4.7,428607.0
Flame of Liberty,"Pl. de l'Alma, 75008 Paris, France",Paris,FR,monuments,48.864187,2.300875,4.5,1827.0
Arc de Triomphe du Carrousel,"Pl. du Carrousel, 75001 Paris, France",Paris,FR,monuments,48.861723,2.332925,4.6,1715.0
Colonne Vendôme,"Pl. Vendôme, 75001 Paris, France",Paris,FR,monuments,48.867462,2.329477,4.7,3354.0
Monument à la République,"Pl. de la République, 75010 Paris, France",Paris,FR,monuments,48.867543,2.363792,4.5,278.0
Conciergerie,"2 Bd du Palais, 75001 Paris, France",Paris,FR,monuments,48.856011,2.345495,4.4,10072.0
Statue of Liberty Paris - Frederic Auguste Bartholdi,"All. des Cygnes, 75015 Paris, France",Paris,FR,monuments,48.850017,2.279696,4.5,5187.0
Sainte-Chapelle,"10 Bd du Palais, 75001 Paris, France",Paris,FR,monuments,48.855375,2.344961,4.6,43407.0
Monument to Human Rights,"Av. Charles Risler, 75007 Paris, France",Paris,FR,monuments,48.855233,2.301155,4.4,789.0
Statue du Général Charles de Gaulle,"Pl. Clemenceau, 75008 Paris, France",Paris,FR,monuments,48.8675,2.313606,4.5,246.0
Place de la Concorde,"75008 Paris, France",Paris,FR,monuments,48.865633,2.321236,4.6,65135.0
Basilique du Sacré-Cœur de Montmartre,"35 Rue du Chevalier de la Barre, 75018 Paris, France",Paris,FR,monuments,48.886705,2.343104,4.7,145215.0
Fontaine Saint-Michel,"Pl. Saint-Michel, 75005 Paris, France",Paris,FR,monuments,48.853237,2.343774,4.4,7320.0
Palais de Chaillot,"1 Pl. du Trocadéro et du 11 Novembre, 75016 Paris, France",Paris,FR,monuments,48.862369,2.288151,4.6,5999.0
Deportation Martyrs Memorial,"7 Quai de l'Archevêché, 75004 Paris, France",Paris,FR,monuments,48.851757,2.352444,4.5,514.0
Colonne de Juillet,"Pl. de la Bastille, 75004 Paris, France",Paris,FR,monuments,48.853191,2.369148,4.3,4405.0
Monument à Pierre Marie René Ernest Waldeck-Rousseau,"75001 Paris, France",Paris,FR,monuments,48.865434,2.325041,4.8,19.0
Medici Fountain,"Rue de Médicis, 75006 Paris, France",Paris,FR,monuments,48.848067,2.339308,4.7,3546.0
Winston Churchill Statue,"13 Av. Winston Churchill, 75008 Paris, France",Paris,FR,monuments,48.865311,2.314028,4.6,188.0
Statue of Louis XIV,"Pl. des Victoires, 75001 Paris, France",Paris,FR,monuments,48.865759,2.341196,4.5,596.0
Place des Victoires,"75001 Paris, France",Paris,FR,monuments,48.865761,2.341185,4.5,491.0
Statue de Thomas Jefferson,"Statue de Thomas Jefferson, Rue de Solferino, 75007 Paris, France",Paris,FR,monuments,48.861267,2.324222,4.6,43.0
Square of Saint-Jacques Tower,"39 Rue de Rivoli, 75004 Paris, France",Paris,FR,monuments,48.857864,2.348815,4.4,4432.0
Crypte Archéologique de l'İle de la Cité,"7 Parvis Notre-Dame - Pl. Jean-Paul II, 75004 Paris, France",Paris,FR,monuments,48.85365,2.347715,4.3,1952.0
Fontaine de la Vierge,"1 Rue du Cloitre Notre Dame, 75004 Paris, France",Paris,FR,monuments,48.852569,2.351386,4.6,87.0
Statue of Marshal Joseph Joffre,"1 Pl. Joffre, 75007 Paris, France",Paris,FR,monuments,48.852903,2.302885,4.6,55.0
Equestrian Statue of Simón Bolívar,"1910 Port des Champs-Élysées, 75008 Paris, France",Paris,FR,monuments,48.864529,2.314222,4.7,83.0
Porte Saint-Denis,"Boulevard St Denis, 75010 Paris, France",Paris,FR,monuments,48.8698,2.352704,4.5,213.0
Monument of Gaspard de Coligny of Châtillon,"1 Rue de l'Oratoire, 75001 Paris, France",Paris,FR,monuments,48.861455,2.339745,4.4,66.0
Buste de Dalida,"Rue de l'Abreuvoir, 75018 Paris, France",Paris,FR,monuments,48.888564,2.338065,4.3,4614.0
Statue d'Étienne Marcel,"1341 Quai de l'Hôtel de ville, 75004 Paris, France",Paris,FR,monuments,48.855669,2.352109,4.4,28.0
Statue of Liberty,"3 Rue Guynemer, 75006 Paris, France",Paris,FR,monuments,48.846401,2.33314,4.5,2490.0
Monument to Taras Shevchenko,"186 Bd Saint-Germain, 75006 Paris, France",Paris,FR,monuments,48.854712,2.330768,4.7,21.0
Jacques De Molay (Knight Templar) Memorial,"75001 Paris, France",Paris,FR,monuments,48.85721,2.340795,4.3,96.0
Statue of Joan of Arc Paris - Emmanuel Fremiet,"4 Pl. des Pyramides, 75001 Paris, France",Paris,FR,monuments,48.863888,2.332199,4.5,500.0
Monument aux morts de la guerre franco-prussienne,"Pl. de Fontenoy-Unesco, 75007 Paris, France",Paris,FR,monuments,48.850841,2.306078,4.1,13.0
Tour de l'Horloge du Palais de la Cité,"Bd du Palais, 75001 Paris, France",Paris,FR,monuments,48.856247,2.346226,4.6,308.0
Monument au Général Diego Brosset,"Prom. d'Australie, 75015 Paris, France",Paris,FR,monuments,48.855015,2.289003,4.8,4.0
Place du Châtelet,"12715 Rue St Denis, 75001 Paris, France",Paris,FR,monuments,48.85747,2.347319,4.2,1326.0
Monument to Maréchal Moncey,"Pl. de Clichy, 75018 Paris, France",Paris,FR,monuments,48.883521,2.327428,4.2,88.0
Tour Jean-sans-Peur,"20 Rue Étienne Marcel, 75002 Paris, France",Paris,FR,monuments,48.864303,2.348061,4.5,587.0
Status Jean-Paul II,"6 Parvis Notre-Dame - Pl. Jean-Paul II, 75004 Paris, France",Paris,FR,monuments,48.852487,2.349607,4.2,40.0
Adam Mickiewicz Monument,"Cr Albert 1er, 75008 Paris, France",Paris,FR,monuments,48.864327,2.304947,4.7,28.0
Place de l'Odéon,"2 Pl. de l'Odéon, 75006 Paris, France",Paris,FR,monuments,48.849991,2.338846,4.4,236.0
Monument aux morts,"62 Pl. du Trocadéro et du 11 Novembre, 75116 Paris, France",Paris,FR,monuments,48.862644,2.286342,4.4,33.0
Marshal Ney Monument,"20 Av. de l'Observatoire, 75006 Paris, France",Paris,FR,monuments,48.840029,2.336371,4.5,25.0
Le Triomphe de Silène,"1 Rue Guynemer, 75006 Paris, France",Paris,FR,monuments,48.847661,2.333151,4.6,16.0
Monument aux Volontaires américains,"1 Pl. des États-Unis, 75116 Paris, France",Paris,FR,monuments,48.867754,2.295031,4.8,13.0
Monument to Alexandre Dumas,"Pl. du Général Catroux, 75017 Paris, France",Paris,FR,monuments,48.883021,2.309532,4.5,85.0
Hôtel des Invalides,"75007 Paris, France",Paris,FR,monuments,48.856529,2.312706,4.7,39089.0
Monument aux morts pour la France en opérations extérieures,"Jardin Eugénie-Djendi, 29 Rue de la Montagne de la Fage, 75015 Paris, France",Paris,FR,monuments,48.838138,2.276918,4.9,29.0
Arènes de Lutèce,"49 Rue Monge, 75005 Paris, France",Paris,FR,monuments,48.845116,2.352837,4.2,5123.0
Montparnasse Tower,"33 Av. du Maine, 75015 Paris, France",Paris,FR,monuments,48.842138,2.321951,4.5,14670.0
Monument Pierre 1er de Serbie et Alexandre 1er de Yougoslavie,"3030 Sq. Alexandre 1er de Yougoslavie, 75116 Paris, France",Paris,FR,monuments,48.863477,2.268139,4.6,25.0
Strasbourg Statue,"Pl. de la Concorde, 75008 Paris, France",Paris,FR,monuments,48.865854,2.322696,4.5,20.0
Statue de Diderot,"Bd Saint-Germain, 75006 Paris, France",Paris,FR,monuments,48.853472,2.334397,4.3,26.0
Monument à Pasteur,"7 Pl. de Breteuil, 75007 Paris, France",Paris,FR,monuments,48.847288,2.31164,4.5,13.0
Le Passe-Muraille,"Pl. Marcel Aymé, 75018 Paris, France",Paris,FR,sculptures,48.887553,2.338042,4.4,1654.0
Stravinsky Fountain,"Rue Brisemiche, 75004 Paris, France",Paris,FR,sculptures,48.859478,2.351546,4.3,1257.0
Statue of Joan of Arc Paris - Emmanuel Fremiet,"4 Pl. des Pyramides, 75001 Paris, France",Paris,FR,sculptures,48.863888,2.332199,4.5,500.0
Statue of Liberty Paris - Frederic Auguste Bartholdi,"All. des Cygnes, 75015 Paris, France",Paris,FR,sculptures,48.850017,2.279696,4.5,5187.0
Outdoor Sculpture Museum,"11 Bis Quai Saint-Bernard, 75005 Paris, France",Paris,FR,sculptures,48.84757,2.360487,4.0,74.0
Michel de Montaigne - Paul Landowski,"56 Rue des Écoles, 75005 Paris, France",Paris,FR,sculptures,48.849905,2.344052,4.5,60.0
Monument à la République,"Pl. de la République, 75010 Paris, France",Paris,FR,sculptures,48.867543,2.363792,4.5,278.0
Statue of Georges Clemenceau,"1 Pl. Clemenceau, 75008 Paris, France",Paris,FR,sculptures,48.867119,2.314397,4.5,84.0
Statue of Liberty,"3 Rue Guynemer, 75006 Paris, France",Paris,FR,sculptures,48.846401,2.33314,4.5,2490.0
La France Renaissante,"810 Pont de Bir-Hakeim, 75015 Paris, France",Paris,FR,sculptures,48.855782,2.287816,4.8,175.0
The Thinker,"77 Rue de Varenne, 75007 Paris, France",Paris,FR,sculptures,48.855616,2.315519,4.3,456.0
Statue du Général Charles de Gaulle,"Pl. Clemenceau, 75008 Paris, France",Paris,FR,sculptures,48.8675,2.313606,4.5,246.0
Rodin Museum - The Gate of Hell,"77 Rue de Varenne, 75007 Paris, France",Paris,FR,sculptures,48.855462,2.31671,4.7,191.0
Equestrian Statue of Henri IV,"15 Pl. du Pont Neuf, 75001 Paris, France",Paris,FR,sculptures,48.857097,2.341142,4.5,258.0
Les Trois Ombres de Rodin,"79 Rue de Varenne, 75007 Paris, France",Paris,FR,sculptures,48.855514,2.316379,4.7,18.0
Statue of Louis XIV,"Pl. des Victoires, 75001 Paris, France",Paris,FR,sculptures,48.865759,2.341196,4.5,596.0
Monument to Balzac,"136 Bd Raspail, 75006 Paris, France",Paris,FR,sculptures,48.842462,2.329457,4.2,22.0
Statue de Sainte Genevieve - Paul Landowski,"Pont de la Tournelle, 75004 Paris, France",Paris,FR,sculptures,48.850264,2.355373,4.6,27.0
Statue poete roumain Mihai Eminescu,"14 Rue Jean de Beauvais, 75005 Paris, France",Paris,FR,sculptures,48.849317,2.346789,4.8,31.0
Crevettes de Paris (sculpture de Nastassia Kotava),"Port de Suffren, 75007 Paris, France",Paris,FR,sculptures,48.858943,2.291884,4.8,28.0
Equestrian Statue of Simón Bolívar,"1910 Port des Champs-Élysées, 75008 Paris, France",Paris,FR,sculptures,48.864529,2.314222,4.7,83.0
The City of Paris,"Pont du Carrousel, 75006 Paris, France",Paris,FR,sculptures,48.858894,2.332696,5.0,2.0
Statue de Charlemagne et ses leudes,"Île de la Cité, France",Paris,FR,sculptures,48.853144,2.348235,4.6,114.0
Angel Bear,"Pl. Napoléon III, 75010 Paris, France",Paris,FR,sculptures,48.880108,2.354835,4.3,20.0
Monument to Alexandre Dumas,"Pl. du Général Catroux, 75017 Paris, France",Paris,FR,sculptures,48.883021,2.309532,4.5,85.0
The Centaur,"2 Pl. Michel Debré, 75006 Paris, France",Paris,FR,sculptures,48.851942,2.329582,4.3,45.0
Courses And Workshops Sculpture Brigitte Brandeau,"71 Rue de Maubeuge, 75010 Paris, France",Paris,FR,sculptures,48.880046,2.350273,5.0,11.0
Statue l'homme au bras levé,"48 Rue du Caire, 75002 Paris, France",Paris,FR,sculptures,48.868158,2.348535,4.6,5.0
Les Fils de Caïn - Paul Landowski,"Jardin des Tuileries, Terr. du Bord de l'Eau, 75001 Paris, France",Paris,FR,sculptures,48.861484,2.329105,5.0,6.0
The Kiss (Rodin sculpture),"Musée Rodin, 77 Rue de Varenne, 75007 Paris, France",Paris,FR,sculptures,48.855407,2.315697,4.7,3.0
SCULPTURE ET COLLECTION,"69 Rue Sainte-Anne, 75002 Paris, France",Paris,FR,sculptures,48.868429,2.336444,5.0,2.0
Musée Rodin,"77 Rue de Varenne, 75007 Paris, France",Paris,FR,sculptures,48.855307,2.315835,4.7,18121.0
Statue Jean de La Fontaine,"Av. du Ranelagh, 75016 Paris, France",Paris,FR,sculptures,48.858233,2.269412,4.5,41.0
Benjamin Franklin Statue,"square de Yorktown, 38 Rue Benjamin Franklin, 75116 Paris, France",Paris,FR,sculptures,48.861723,2.286405,4.7,18.0
"Sculpture (Niemeyer, parc de Bercy)","3 Pl. Léonard Bernstein, 75012 Paris, France",Paris,FR,sculptures,48.837248,2.381659,4.5,8.0
Les lutteurs,"Pl. de Valois, 75001 Paris, France",Paris,FR,sculptures,48.86315,2.338108,5.0,2.0
Statue de Rimbaud,"Jardin Tino Rossi, Paris, France",Paris,FR,sculptures,48.846729,2.362183,4.8,6.0
Statue Honoré de Balzac,"12 Av. de Friedland, 75008 Paris, France",Paris,FR,sculptures,48.874675,2.302074,4.5,26.0
Petit Palais,"Av. Winston Churchill, 75008 Paris, France",Paris,FR,sculptures,48.866048,2.31459,4.7,20905.0
L'heure de tous - Armand Fernandez,"Cour du Havre, 5 Rue d'Amsterdam, 75008 Paris, France",Paris,FR,sculptures,48.875875,2.326625,4.5,66.0
Workshops Sculpture-Paris-Montreuil,"24 Rue Saigne, 93100 Montreuil, France",Paris,FR,sculptures,48.853768,2.442296,4.8,10.0
Monument of Gaspard de Coligny of Châtillon,"1 Rue de l'Oratoire, 75001 Paris, France",Paris,FR,sculptures,48.861455,2.339745,4.4,66.0
Statue of Marshal Gallieni,"Pl. Vauban, 75007 Paris, France",Paris,FR,sculptures,48.853708,2.311778,4.1,125.0
Flame of Liberty,"Pl. de l'Alma, 75008 Paris, France",Paris,FR,sculptures,48.864187,2.300875,4.5,1827.0
Statue d'Étienne Marcel,"1341 Quai de l'Hôtel de ville, 75004 Paris, France",Paris,FR,sculptures,48.855669,2.352109,4.4,28.0
Edith Piaf Statue,"Pl. Edith Piaf, 75020 Paris, France",Paris,FR,sculptures,48.864839,2.405306,4.2,20.0
L'Ami de personne,"75001 Paris, France",Paris,FR,sculptures,48.864162,2.328001,4.8,11.0
Statue Auguste Comte,"8 Pl. de la Sorbonne, 75005 Paris, France",Paris,FR,sculptures,48.848763,2.34202,4.6,24.0
Laurent Mallamaci - Sculpteur,"19 Rue Milton, 75009 Paris, France",Paris,FR,sculptures,48.878531,2.340901,0.0,0.0
Buste de Dalida,"Rue de l'Abreuvoir, 75018 Paris, France",Paris,FR,sculptures,48.888564,2.338065,4.3,4614.0
Sculptures L'Ordre et la Force de Antoine Louis Barye (sculpteur Laurent Marqueste),"2 Bd Henri IV, 75004 Paris, France",Paris,FR,sculptures,48.850083,2.359724,5.0,1.0
L'arbre aux mille voix,"3 Quai Voltaire, 75007 Paris, France",Paris,FR,sculptures,48.858786,2.332643,4.5,2.0
Matière & Imaginaire Drawing Painting Modeling Sculpture Course Internship And Training - Art Workshop Butte Aux Cailles Paris,"41 Rue de la Butte aux Cailles, 75013 Paris, France",Paris,FR,sculptures,48.827726,2.347533,4.9,22.0
Bourdelle Museum,"18 Rue Antoine Bourdelle, 75015 Paris, France",Paris,FR,sculptures,48.843124,2.318657,4.6,3227.0
Bel costumé (sculpture de Dubuffet),"Jardin des tuileries, 75001 Paris, France",Paris,FR,sculptures,48.864322,2.326119,4.3,9.0
Formes et Sculptures Installation,"3 Rue Robert Planquette, 75018 Paris, France",Paris,FR,sculptures,48.884939,2.334684,5.0,3.0
Un Cœur d'or,"10 Rue Jacques Callot, 75006 Paris, France",Paris,FR,sculptures,48.855375,2.337124,4.3,3.0
Medici Fountain,"Rue de Médicis, 75006 Paris, France",Paris,FR,sculptures,48.848067,2.339308,4.7,3546.0
L'Acteur Grec,"Jardin du Luxembourg, 75006 Paris, France",Paris,FR,sculptures,48.847836,2.338642,4.6,43.0
Atelier de sculpture Galerie Grès,"9 Rue du Pont Louis-Philippe, 75004 Paris, France",Paris,FR,sculptures,48.85512,2.355531,4.5,17.0
Domaine National du Palais-Royal,"75001 Paris, France",Paris,FR,palaces,48.863757,2.337126,4.6,20356.0
Grand Palais,"75008 Paris, France",Paris,FR,palaces,48.866109,2.312454,4.5,23936.0
Luxembourg Palace,"15 Rue de Vaugirard, 75006 Paris, France",Paris,FR,palaces,48.849185,2.337344,4.7,3620.0
Petit Palais,"Av. Winston Churchill, 75008 Paris, France",Paris,FR,palaces,48.866048,2.31459,4.7,20905.0
Jardin du Palais Royal,"8 Rue de Montpensier, 75001 Paris, France",Paris,FR,palaces,48.864972,2.337806,4.7,7964.0
Palais de l'Élysée,"55 Rue du Faubourg Saint-Honoré, 75008 Paris, France",Paris,FR,palaces,48.870309,2.316678,3.6,1721.0
Place des Vosges,"Pl. des Vosges, 75004 Paris, France",Paris,FR,palaces,48.855611,2.365527,4.6,29043.0
Assemblée nationale | Palais Bourbon,"126 Rue de l'Université, 75007 Paris, France",Paris,FR,palaces,48.861911,2.318582,4.4,779.0
Borghese Palace,"39 Rue du Faubourg Saint-Honoré, 75008 Paris, France",Paris,FR,palaces,48.868776,2.318527,3.8,4.0
Château de Vincennes,"Av. de Paris, 94300 Vincennes, France",Paris,FR,castles,48.84433,2.436331,4.5,16407.0
Château de Fontainebleau,"77300 Fontainebleau, France",Paris,FR,castles,48.402102,2.699484,4.6,26905.0
Château de Chambord,"41250 Chambord, France",Paris,FR,castles,47.615809,1.516919,4.6,56133.0
Château de Breteuil,"78460 Choisel, France",Paris,FR,castles,48.680303,2.023019,4.6,3943.0
Le Château de la Belle au Bois Dormant,"Parc Disneyland, 77700 Chessy, France",Paris,FR,castles,48.873143,2.776111,4.7,8564.0
Château de Chantilly,"60500 Chantilly, France",Paris,FR,castles,49.193847,2.485203,4.6,20376.0
Palace of Versailles,"Place d'Armes, 78000 Versailles, France",Paris,FR,castles,48.804865,2.120355,4.6,150487.0
Château de Vaux-le-Vicomte,"77950 Maincy, France",Paris,FR,castles,48.565812,2.714135,4.6,12504.0
Castle of La Roche-Guyon,"1 Rue de l'Audience, 95780 La Roche-Guyon, France",Paris,FR,castles,49.081297,1.628056,4.5,3956.0
Château de Pierrefonds,"Rue Viollet le Duc, 60350 Pierrefonds, France",Paris,FR,castles,49.346975,2.980183,4.6,14324.0
Château de Champs-sur-Marne,"31 Rue de Paris, 77420 Champs-sur-Marne, France",Paris,FR,castles,48.853217,2.604142,4.6,2703.0
Château de Sceaux,"All. d'Honneur, 92330 Sceaux, France",Paris,FR,castles,48.774375,2.300078,4.7,2050.0
Domaine National du Palais-Royal,"75001 Paris, France",Paris,FR,castles,48.863757,2.337126,4.6,20356.0
Château de Monte-Cristo,"Chem. du Haut des Ormes, 78560 Le Port-Marly, France",Paris,FR,castles,48.885569,2.103434,4.5,1654.0
Château de Rambouillet,"78120 Rambouillet, France",Paris,FR,castles,48.645391,1.817376,4.3,4746.0
Château de Malmaison,"12 Av. du Château de la Malmaison, 92500 Rueil-Malmaison, France",Paris,FR,castles,48.8708,2.166848,4.5,2259.0
Château de la Madeleine,"Chem. Jean Racine, 78460 Chevreuse, France",Paris,FR,castles,48.710105,2.041695,4.3,1941.0
Château de Brie-Comte-Robert,"1 Rue du Château, 77170 Brie-Comte-Robert, France",Paris,FR,castles,48.692466,2.610736,4.2,1557.0
Château de Dourdan,"Pl. du Général de Gaulle, 91410 Dourdan, France",Paris,FR,castles,48.529854,2.011291,4.3,1417.0
Chateau De Plaisir,"282 Rue de la Bretechelle, 78370 Plaisir, France",Paris,FR,castles,48.814619,1.953297,4.3,788.0
The Château de Longchamp - Good Planet Foundation,"1 Carr de Longchamp, 75016 Paris, France",Paris,FR,castles,48.864689,2.23756,4.6,191.0
Keep of Vincennes,"Av. de Paris, 94300 Vincennes, France",Paris,FR,castles,48.842822,2.434218,4.6,764.0
Castle of the White Queen,"6 Rue Gustave Geffroy, 75013 Paris, France",Paris,FR,castles,48.835365,2.351006,4.1,123.0
Castle Park,"1 Rue de la République, 92150 Suresnes, France",Paris,FR,castles,48.864652,2.225417,4.5,1268.0
Maisons-Laffitte Castle,"2 Av. Carnot, 78600 Maisons-Laffitte, France",Paris,FR,castles,48.947161,2.153885,4.4,1704.0
Château des Montalets,"19 Bd Anatole France, 92190 Meudon, France",Paris,FR,castles,48.817501,2.242265,4.8,8.0
Château de Madrid,"31 Bd du Commandant Charcot, 92200 Neuilly-sur-Seine, France",Paris,FR,castles,48.874723,2.255036,4.5,2.0
Château de la Muette,"2 Rue André Pascal, 75016 Paris, France",Paris,FR,castles,48.861429,2.269333,4.5,19.0
Château de Saint-Germain-en-Laye,"1 Pl. Charles de Gaulle, 78100 Saint-Germain-en-Laye, France",Paris,FR,castles,48.898019,2.096039,4.5,3637.0
Château d'Asnières,"89 Rue du Château, 92600 Asnières-sur-Seine, France",Paris,FR,castles,48.910439,2.293507,4.2,352.0
Château Raspail,"21 Rue Gallieni, 94230 Cachan, France",Paris,FR,castles,48.795313,2.333099,5.0,2.0
Château De Saint-Ouen-Sur-Seine,"12 Rue Albert Dhalenne, 93400 Saint-Ouen-sur-Seine, France",Paris,FR,castles,48.91651,2.329556,4.2,50.0
Château de Bagatelle,"35 Rte de Sèvres À Neuilly, 75016 Paris, France",Paris,FR,castles,48.871752,2.24727,4.7,32.0
Eiffel Tower,"Av. Gustave Eiffel, 75007 Paris, France",Paris,FR,landmark,48.85837,2.294481,4.7,428607.0
Arc de Triomphe,"Pl. Charles de Gaulle, 75008 Paris, France",Paris,FR,landmark,48.873792,2.295028,4.7,260986.0
Notre-Dame Cathedral of Paris,"6 Parvis Notre-Dame - Pl. Jean-Paul II, 75004 Paris, France",Paris,FR,landmark,48.852968,2.349902,4.7,60631.0
Panthéon,"Pl. du Panthéon, 75005 Paris, France",Paris,FR,landmark,48.846222,2.346414,4.6,59548.0
Place de la Concorde,"75008 Paris, France",Paris,FR,landmark,48.865633,2.321236,4.6,65135.0
Palais de Chaillot,"1 Pl. du Trocadéro et du 11 Novembre, 75016 Paris, France",Paris,FR,landmark,48.862369,2.288151,4.6,5999.0
Statue of Liberty Paris - Frederic Auguste Bartholdi,"All. des Cygnes, 75015 Paris, France",Paris,FR,landmark,48.850017,2.279696,4.5,5187.0
Colonne Vendôme,"Pl. Vendôme, 75001 Paris, France",Paris,FR,landmark,48.867462,2.329477,4.7,3354.0
Montparnasse Tower,"33 Av. du Maine, 75015 Paris, France",Paris,FR,landmark,48.842138,2.321951,4.5,14670.0
Hôtel des Invalides,"75007 Paris, France",Paris,FR,landmark,48.856529,2.312706,4.7,39089.0
Place Saint-Michel,"Pl. Saint-Michel, 75006 Paris, France",Paris,FR,landmark,48.852836,2.343401,4.6,592.0
Basilique du Sacré-Cœur de Montmartre,"35 Rue du Chevalier de la Barre, 75018 Paris, France",Paris,FR,landmark,48.886705,2.343104,4.7,145215.0
Wall of I Love You,"Square Jehan Rictus, 14 Pl. des Abbesses, 75018 Paris, France",Paris,FR,landmark,48.884804,2.338578,4.3,16939.0
Conciergerie,"2 Bd du Palais, 75001 Paris, France",Paris,FR,landmark,48.856011,2.345495,4.4,10072.0
Fontaine Saint-Michel,"Pl. Saint-Michel, 75005 Paris, France",Paris,FR,landmark,48.853237,2.343774,4.4,7320.0
Le Marais,"54 Rue Vieille du Temple, 75003 Paris, France",Paris,FR,landmark,48.858703,2.358804,4.6,409.0
Crypte Archéologique de l'İle de la Cité,"7 Parvis Notre-Dame - Pl. Jean-Paul II, 75004 Paris, France",Paris,FR,landmark,48.85365,2.347715,4.3,1952.0
Monument to Human Rights,"Av. Charles Risler, 75007 Paris, France",Paris,FR,landmark,48.855233,2.301155,4.4,789.0
Monument à la République,"Pl. de la République, 75010 Paris, France",Paris,FR,landmark,48.867543,2.363792,4.5,278.0
Passage Jouffroy,"10-12 Bd Montmartre, 75009 Paris, France",Paris,FR,landmark,48.871856,2.341932,4.5,1705.0
Place des Victoires,"75001 Paris, France",Paris,FR,landmark,48.865761,2.341185,4.5,491.0
Sainte-Chapelle,"10 Bd du Palais, 75001 Paris, France",Paris,FR,landmark,48.855375,2.344961,4.6,43407.0
Louvre Museum,"75001 Paris, France",Paris,FR,landmark,48.860611,2.337644,4.7,337618.0
Place Vendôme,"14 Pl. Vendôme, 75001 Paris, France",Paris,FR,landmark,48.86769,2.32973,4.7,608.0
Passage des Panoramas,"11 Bd Montmartre, 75002 Paris, France",Paris,FR,landmark,48.871511,2.341904,4.4,2828.0
Place des Vosges,"Pl. des Vosges, 75004 Paris, France",Paris,FR,landmark,48.855611,2.365527,4.6,29043.0
Porte Saint-Martin,"Bd Saint-Martin, 75003 Paris, France",Paris,FR,landmark,48.869142,2.355667,4.4,82.0
Le Mur des justes,"2-4 All. des Justes de France, 75004 Paris, France",Paris,FR,landmark,48.855026,2.35604,4.7,31.0
Place Dauphine,"Rue Henri Robert, Rue de Harlay, Paris, France",Paris,FR,landmark,48.856687,2.342318,4.8,27.0
Statue of Louis XIV,"Pl. des Victoires, 75001 Paris, France",Paris,FR,landmark,48.865759,2.341196,4.5,596.0
Jardin du Luxembourg,"75006 Paris, France",Paris,FR,landmark,48.846614,2.336331,4.7,113659.0
Atlantes,"76 Av. Daumesnil, 75012 Paris, France",Paris,FR,landmark,48.84445,2.380835,4.5,6.0
Beffroi de l'Église Saint-Germain l'Auxerrois de Paris,"2A Pl. du Louvre, 75001 Paris, France",Paris,FR,landmark,48.859832,2.340955,4.6,102.0
Equestrian Statue of Simón Bolívar,"1910 Port des Champs-Élysées, 75008 Paris, France",Paris,FR,landmark,48.864529,2.314222,4.7,83.0
Buste Hommage à Samuel Champlain,"1 Av. Franklin Delano Roosevelt, 75008 Paris, France",Paris,FR,landmark,48.8651,2.310455,4.1,16.0
Jacques De Molay (Knight Templar) Memorial,"75001 Paris, France",Paris,FR,landmark,48.85721,2.340795,4.3,96.0
Enceinte de Philippe Auguste,"21 Rue des Jardins Saint-Paul, 75004 Paris, France",Paris,FR,landmark,48.853568,2.360334,4.5,24.0
Les Halles de Paris,"101 Rue Berger, 75001 Paris, France",Paris,FR,landmark,48.861687,2.347786,4.3,72.0
Equestrian Statue of Henri IV,"15 Pl. du Pont Neuf, 75001 Paris, France",Paris,FR,landmark,48.857097,2.341142,4.5,258.0
Fontaine du Gros Caillou,"31 Rue de l'Exposition, 75007 Paris, France",Paris,FR,landmark,48.858369,2.3024,4.7,26.0
Narrowest street in Paris,"Rue du Chat Qui Pêche, 75005 Paris, France",Paris,FR,landmark,48.853064,2.346121,3.9,177.0
Grande Arche de la Défense,"1 Parv. de la Défense, 92800 Puteaux, France",Paris,FR,landmark,48.892598,2.236112,4.4,9360.0
Monument of Gaspard de Coligny of Châtillon,"1 Rue de l'Oratoire, 75001 Paris, France",Paris,FR,landmark,48.861455,2.339745,4.4,66.0
KB,"2 Quai Saint-Michel, 75005 Paris, France",Paris,FR,landmark,48.853068,2.346816,4.7,3.0
Old Wall of Paris,"Rue des Jardins Saint-Paul, 75004 Paris, France",Paris,FR,landmark,48.853596,2.360345,4.5,6.0
Passage du Grand Cerf,"145 Rue St Denis, 75002 Paris, France",Paris,FR,landmark,48.864669,2.350091,4.5,502.0
Parvis de l’Hôtel de Ville,"Parvis de l'hôtel de ville, 75004 Paris, France",Paris,FR,landmark,48.856674,2.351609,4.6,528.0
Tower Philippe Auguste,"52 Rue des Archives, 75004 Paris, France",Paris,FR,landmark,48.859709,2.35699,4.4,10.0
Monument to Taras Shevchenko,"186 Bd Saint-Germain, 75006 Paris, France",Paris,FR,landmark,48.854712,2.330768,4.7,21.0
Statue de Diderot,"Bd Saint-Germain, 75006 Paris, France",Paris,FR,landmark,48.853472,2.334397,4.3,26.0
Fontaine des Innocents,"Pl. Joachim du Bellay, 75001 Paris, France",Paris,FR,landmark,48.860647,2.348033,4.1,1742.0
Pont Neuf,"75001 Paris, France",Paris,FR,landmark,48.856583,2.340888,4.6,20681.0
Monument aux morts de la guerre franco-prussienne,"Pl. de Fontenoy-Unesco, 75007 Paris, France",Paris,FR,landmark,48.850841,2.306078,4.1,13.0
Piece of the Berlin Wall,"3 Av. du Général Eisenhower, 75008 Paris, France",Paris,FR,landmark,48.867025,2.310539,4.2,25.0
Statue de Thomas Jefferson,"Statue de Thomas Jefferson, Rue de Solferino, 75007 Paris, France",Paris,FR,landmark,48.861267,2.324222,4.6,43.0
Monument aux Volontaires américains,"1 Pl. des États-Unis, 75116 Paris, France",Paris,FR,landmark,48.867754,2.295031,4.8,13.0
Clock of the Conciergerie,"1 Bd du Palais, 75004 Paris, France",Paris,FR,landmark,48.855879,2.347383,5.0,2.0
2nd Statue du Chevalier de la Barre,"1 Rue Saint-Éleuthère, 75018 Paris, France",Paris,FR,landmark,48.886012,2.341565,4.4,24.0
Colonnade de Perrault,"3 Pl. du Louvre, 75001 Paris, France",Paris,FR,landmark,48.860155,2.339646,4.6,225.0
DIDEROT LANDMARK - 1751 AUTHOR L'ENCYCLOPEDIE,"39 Rue de Richelieu, 75001 Paris, France",Paris,FR,landmark,48.865722,2.33673,5.0,1.0
Louvre Museum,"75001 Paris, France",Paris,FR,museums,48.860611,2.337644,4.7,337618.0
Petit Palais,"Av. Winston Churchill, 75008 Paris, France",Paris,FR,museums,48.866048,2.31459,4.7,20905.0
Musée de l'Orangerie,"Jardin des Tuileries, 75001 Paris, France",Paris,FR,museums,48.863788,2.322672,4.6,19851.0
Carnavalet Museum,"23 Rue de Sévigné, 75003 Paris, France",Paris,FR,museums,48.857067,2.362858,4.7,9336.0
Musée d'Orsay,"Esplanade Valéry Giscard d'Estaing, 75007 Paris, France",Paris,FR,museums,48.859961,2.326561,4.8,99792.0
Fondation Louis Vuitton,"8 Av. du Mahatma Gandhi, 75116 Paris, France",Paris,FR,museums,48.876645,2.263524,4.5,20659.0
Musée Rodin,"77 Rue de Varenne, 75007 Paris, France",Paris,FR,museums,48.855307,2.315835,4.7,18121.0
Musée Jacquemart-André,"158 Bd Haussmann, 75008 Paris, France",Paris,FR,museums,48.875553,2.310422,4.5,8135.0
Musée National Picasso-Paris,"5 Rue de Thorigny, 75003 Paris, France",Paris,FR,museums,48.859667,2.362614,4.4,13276.0
Palais de Tokyo,"13 Av. du Président Wilson, 75116 Paris, France",Paris,FR,museums,48.864587,2.296675,4.4,10719.0
Musée des Arts Décoratifs,"107 Rue de Rivoli, 75001 Paris, France",Paris,FR,museums,48.863115,2.333494,4.5,8495.0
Arab World Institute,"1 Rue des Fossés Saint-Bernard, 75005 Paris, France",Paris,FR,museums,48.848926,2.357231,4.2,2245.0
Grand Palais,"75008 Paris, France",Paris,FR,museums,48.866109,2.312454,4.5,23936.0
Museum of Hunting and Nature,"62 Rue des Archives, 75003 Paris, France",Paris,FR,museums,48.861406,2.3587,4.5,2154.0
Bourse de Commerce - Pinault Collection,"2 Rue de Viarmes, 75001 Paris, France",Paris,FR,museums,48.86288,2.342839,4.4,7181.0
Musée d'Art Moderne de Paris,"11 Av. du Président Wilson, 75116 Paris, France",Paris,FR,museums,48.864342,2.297821,4.5,7407.0
Musée du quai Branly - Jacques Chirac,"37 Quai Jacques Chirac, 75007 Paris, France",Paris,FR,museums,48.860889,2.297894,4.6,18293.0
Hôtel de la Marine,"2 Pl. de la Concorde, 75008 Paris, France",Paris,FR,museums,48.866611,2.32356,4.7,4643.0
The Army Museum,"129 Rue de Grenelle, 75007 Paris, France",Paris,FR,museums,48.855793,2.312593,4.6,25519.0
National Museum of Natural History,"57 Rue Cuvier, 75005 Paris, France",Paris,FR,museums,48.841701,2.356017,4.5,6821.0
Dali Museum,"11 Rue Poulbot, 75018 Paris, France",Paris,FR,museums,48.886512,2.339872,4.4,2835.0
The Centre Pompidou,"Place Georges-Pompidou, 75004 Paris, France",Paris,FR,museums,48.860642,2.352245,4.4,56875.0
Musée Marmottan Monet,"2 Rue Louis Boilly, 75016 Paris, France",Paris,FR,museums,48.859234,2.267223,4.6,8182.0
Musée des Arts et Métiers,"60 Rue Réaumur, 75003 Paris, France",Paris,FR,museums,48.86604,2.355615,4.6,8491.0
Musée du Parfum,"9 Rue Scribe, 75009 Paris, France",Paris,FR,museums,48.871493,2.330266,4.4,5709.0
Musée de Cluny,"28 Rue du Sommerard, 75005 Paris, France",Paris,FR,museums,48.850483,2.344081,4.4,6311.0
Cartier Foundation for Contemporary Art,"261 Bd Raspail, 75014 Paris, France",Paris,FR,museums,48.837292,2.331915,4.3,4432.0
Louvre Museum,"75001 Paris, France",Paris,FR,art gallery,48.860611,2.337644,4.7,337618.0
Musée d'Orsay,"Esplanade Valéry Giscard d'Estaing, 75007 Paris, France",Paris,FR,art gallery,48.859961,2.326561,4.8,99792.0
Musée National Picasso-Paris,"5 Rue de Thorigny, 75003 Paris, France",Paris,FR,art gallery,48.859667,2.362614,4.4,13276.0
Grand Palais,"75008 Paris, France",Paris,FR,art gallery,48.866109,2.312454,4.5,23936.0
Dali Museum,"11 Rue Poulbot, 75018 Paris, France",Paris,FR,art gallery,48.886512,2.339872,4.4,2835.0
Petit Palais,"Av. Winston Churchill, 75008 Paris, France",Paris,FR,art gallery,48.866048,2.31459,4.7,20905.0
The Centre Pompidou,"Place Georges-Pompidou, 75004 Paris, France",Paris,FR,art gallery,48.860642,2.352245,4.4,56875.0
Musée d'Art Moderne de Paris,"11 Av. du Président Wilson, 75116 Paris, France",Paris,FR,art gallery,48.864342,2.297821,4.5,7407.0
Perrotin,"76 Rue de Turenne, 75003 Paris, France",Paris,FR,art gallery,48.860503,2.364702,4.7,702.0
Le CentQuatre,"104 Rue d'Aubervilliers, 75019 Paris, France",Paris,FR,art gallery,48.89052,2.368644,4.6,381.0
Ateliers-musée Chana Orloff,"7 bis Vla Seurat, 75014 Paris, France",Paris,FR,art gallery,48.826146,2.332702,4.7,90.0
Bourse de Commerce - Pinault Collection,"2 Rue de Viarmes, 75001 Paris, France",Paris,FR,art gallery,48.86288,2.342839,4.4,7181.0
Palais de Tokyo,"13 Av. du Président Wilson, 75116 Paris, France",Paris,FR,art gallery,48.864587,2.296675,4.4,10719.0
Musée de l'Orangerie,"Jardin des Tuileries, 75001 Paris, France",Paris,FR,art gallery,48.863788,2.322672,4.6,19851.0
Fondation Louis Vuitton,"8 Av. du Mahatma Gandhi, 75116 Paris, France",Paris,FR,art gallery,48.876645,2.263524,4.5,20659.0
Musée Jacquemart-André,"158 Bd Haussmann, 75008 Paris, France",Paris,FR,art gallery,48.875553,2.310422,4.5,8135.0
Lafayette Anticipations,"9 Rue du Plâtre, 75004 Paris, France",Paris,FR,art gallery,48.8592,2.354858,4.4,635.0
Halle Saint-Pierre,"2 Rue Ronsard, 75018 Paris, France",Paris,FR,art gallery,48.884795,2.344289,4.5,1924.0
Musée du quai Branly - Jacques Chirac,"37 Quai Jacques Chirac, 75007 Paris, France",Paris,FR,art gallery,48.860889,2.297894,4.6,18293.0
Fluctuart - Centre d'art urbain,"2 port du Gros Caillou, 75007 Paris, France",Paris,FR,art gallery,48.863087,2.309337,4.3,2422.0
Musée de Cluny,"28 Rue du Sommerard, 75005 Paris, France",Paris,FR,art gallery,48.850483,2.344081,4.4,6311.0
Musée Cernuschi,"7 Av. Velasquez, 75008 Paris, France",Paris,FR,art gallery,48.879627,2.312424,4.5,2241.0
Musée d'art et d'histoire du Judaïsme,"Hôtel de Saint-Aignan, 71 Rue du Temple, 75003 Paris, France",Paris,FR,art gallery,48.86098,2.355649,4.5,1988.0
Les Pavillons de Bercy - Musée des Arts Forains,"53 Av. des Terroirs de France, 75012 Paris, France",Paris,FR,art gallery,48.833028,2.388768,4.7,6990.0
Cartier Foundation for Contemporary Art,"261 Bd Raspail, 75014 Paris, France",Paris,FR,art gallery,48.837292,2.331915,4.3,4432.0
La Gaîté Lyrique,"3 bis Rue Papin, 75003 Paris, France",Paris,FR,art gallery,48.866697,2.353563,4.5,2558.0
Panthéon Bouddhique,"19 Av. d'Iéna, 75116 Paris, France",Paris,FR,art gallery,48.866417,2.294475,4.3,3.0
Basilique du Sacré-Cœur de Montmartre,"35 Rue du Chevalier de la Barre, 75018 Paris, France",Paris,FR,churches,48.886705,2.343104,4.7,145215.0
Notre-Dame Cathedral of Paris,"6 Parvis Notre-Dame - Pl. Jean-Paul II, 75004 Paris, France",Paris,FR,churches,48.852968,2.349902,4.7,60631.0
Sainte-Chapelle,"10 Bd du Palais, 75001 Paris, France",Paris,FR,churches,48.855375,2.344961,4.6,43407.0
Church of Saint-Germain-des-Prés,"3 Pl. Saint-Germain des Prés, 75006 Paris, France",Paris,FR,churches,48.853958,2.333707,4.7,5532.0
Saint-Eustache Church,"2 Imp. Saint-Eustache, 75001 Paris, France",Paris,FR,churches,48.86339,2.345121,4.7,7436.0
Church of Saint-Étienne-du-Mont,"Place Sainte-Geneviève, 75005 Paris, France",Paris,FR,churches,48.846539,2.34809,4.7,2674.0
La Madeleine,"Pl. de la Madeleine, 75008 Paris, France",Paris,FR,churches,48.870044,2.32455,4.6,11277.0
Saint-Germain-l'Auxerrois,"2 Pl. du Louvre, 75001 Paris, France",Paris,FR,churches,48.859488,2.341054,4.7,1744.0
Église Saint-Sulpice,"2 Rue Palatine, 75006 Paris, France",Paris,FR,churches,48.850981,2.335005,4.6,10515.0
Église Saint-Pierre de Montmartre,"2 Rue du Mont-Cenis, 75018 Paris, France",Paris,FR,churches,48.886691,2.341721,4.6,777.0
Paroisse Saint-Paul Saint-Louis,"99 Rue Saint-Antoine, 75004 Paris, France",Paris,FR,churches,48.854468,2.361451,4.6,1679.0
Église Saint-Augustin,"Pl. Saint-Augustin, 75008 Paris, France",Paris,FR,churches,48.876298,2.318838,4.6,2380.0
Church of Saint-Gervais,"13 Rue des Barres, 75004 Paris, France",Paris,FR,churches,48.855613,2.354459,4.6,1065.0
Basilique Cathédrale Saint-Denis,"1 Rue de la Légion d'Honneur, 93200 Saint-Denis, France",Paris,FR,churches,48.935694,2.359117,4.6,6748.0
Paroisse Notre-Dame de Lorette,"8bis Rue Choron, 75009 Paris, France",Paris,FR,churches,48.876215,2.339017,4.6,1166.0
Basilica of Notre-Dame des Victoires,"7 Pl. des Petits Pères, 75002 Paris, France",Paris,FR,churches,48.866793,2.340922,4.7,1018.0
Church of Saint-Roch,"296 Rue Saint-Honoré, 75001 Paris, France",Paris,FR,churches,48.864926,2.332282,4.6,1047.0
The American Cathedral in Paris,"23 Av. George V, 75008 Paris, France",Paris,FR,churches,48.867422,2.300946,4.6,558.0
Église Saint-Louis-en-l'Île,"19 bis Rue Saint-Louis en l'Île, 75004 Paris, France",Paris,FR,churches,48.851344,2.357504,4.6,593.0
Church of Saint-Séverin,"1 Rue des Prêtres Saint-Séverin, 75005 Paris, France",Paris,FR,churches,48.85215,2.345402,4.3,2113.0
Saint Merry Church,"76 Rue de la Verrerie, 75004 Paris, France",Paris,FR,churches,48.859126,2.350875,4.5,731.0
Church of Saint-Nicolas-des-Champs,"254 Rue Saint-Martin, 75003 Paris, France",Paris,FR,churches,48.865647,2.353766,4.7,805.0
"St. Volodymyr's Cathedral, Paris","51 Rue des Saints-Pères, 75006 Paris, France",Paris,FR,churches,48.854752,2.330876,4.8,417.0
Église Notre-Dame des Champs,"91 Bd du Montparnasse, 75006 Paris, France",Paris,FR,churches,48.843175,2.326878,4.6,830.0
Saint-Nicolas du Chardonnet,"23 Rue des Bernardins, 75005 Paris, France",Paris,FR,churches,48.848912,2.350132,4.6,977.0
American Church in Paris,"65 Quai d'Orsay, 75007 Paris, France",Paris,FR,churches,48.862279,2.306812,4.5,721.0
Catholic Church of the Val-de-Grâce,"Ancienne abbaye royale du, 1 Pl. Alphonse Laveran, 75005 Paris, France",Paris,FR,churches,48.840469,2.342018,4.6,393.0
Notre-Dame-des-Blancs-Manteaux,"1 Rue de l'Abbé Migné, 75004 Paris, France",Paris,FR,churches,48.85893,2.357647,4.5,273.0
Saint-Julien-le-Pauvre,"1 Rue Saint-Julien le Pauvre, 75005 Paris, France",Paris,FR,churches,48.852037,2.347102,4.6,734.0
Romanian Orthodox Church of the Holy Archangels,"9 Bis Rue Jean de Beauvais, 75005 Paris, France",Paris,FR,churches,48.849526,2.347084,4.7,472.0
"Saint-Ambroise, Paris","71 bis Bd Voltaire, 75011 Paris, France",Paris,FR,churches,48.861182,2.375676,4.5,874.0
Église Saint-François-Xavier,"12 Pl. du Président Mithouard, 75007 Paris, France",Paris,FR,churches,48.850896,2.313908,4.6,542.0
"Sainte-Clotilde, Paris","23B Rue las Cases, 75007 Paris, France",Paris,FR,churches,48.858524,2.319317,4.7,1004.0
Cathedrale Saint Alexandre Nevsky,"12 Rue Daru, 75008 Paris, France",Paris,FR,churches,48.87764,2.301921,4.7,950.0
Church of St Louis d'Antin,"63 Rue de Caumartin, 75009 Paris, France",Paris,FR,churches,48.874554,2.328329,4.7,916.0
Cathédrale de la Sainte-Trinité,"1 Quai Jacques Chirac, 75007 Paris, France",Paris,FR,churches,48.861925,2.301009,4.4,1164.0
Saint-Vincent de Paul Catholic Church,"Square Cavaillé-Coll, 75010 Paris, France",Paris,FR,churches,48.878584,2.351827,4.6,774.0
Saint-Eugène Sainte-Cécile Church,"4 Rue du Conservatoire, 75009 Paris, France",Paris,FR,churches,48.873185,2.347156,4.7,500.0
Our Lady of Lebanon of Paris Cathedral,"17 Rue d'Ulm, 75005 Paris, France",Paris,FR,churches,48.843984,2.345132,4.7,340.0
Église Notre-Dame de l'Assomption,"Pl. Maurice Barrès, 75001 Paris, France",Paris,FR,churches,48.867561,2.325559,4.6,665.0
Church of Saint-Leu-Saint-Gilles - Parigi (Francia),"92 Rue St Denis, 75001 Paris, France",Paris,FR,churches,48.862962,2.349874,4.5,238.0
"Saint-Laurent, Paris","68 Bd de Magenta, 75010 Paris, France",Paris,FR,churches,48.874846,2.357964,4.5,767.0
Saint Pierre de Chaillot Catholic Church,"31 Av. Marceau, 75016 Paris, France",Paris,FR,churches,48.867604,2.298926,4.6,437.0
Hillsong Paris,"30 Av. d'Italie, 75013 Paris, France",Paris,FR,churches,48.830583,2.355606,4.8,396.0
Église Saint-Médard,"141 Rue Mouffetard, 75005 Paris, France",Paris,FR,churches,48.83994,2.35053,4.5,412.0
Church of Our Lady of Labour,"59 Rue Vercingétorix, 75014 Paris, France",Paris,FR,churches,48.836126,2.316924,4.6,620.0
Church of Saint-Esprit,"186 Av. Daumesnil 186, 75012 Paris, France",Paris,FR,churches,48.838467,2.398033,4.5,368.0
Armenian Cathedral of St. John the Baptist,"15 Rue Jean Goujon, 75008 Paris, France",Paris,FR,churches,48.86588,2.306903,4.7,342.0
Church of Saint-Pierre-de-Montrouge,"82 Av. du Général Leclerc, 75014 Paris, France",Paris,FR,churches,48.828687,2.327051,4.6,613.0
Panthéon,"Pl. du Panthéon, 75005 Paris, France",Paris,FR,churches,48.846222,2.346414,4.6,59548.0
Église Saint-Joseph,"50 Av. Hoche, 75008 Paris, France",Paris,FR,churches,48.875482,2.29844,4.7,275.0
Church of Saint-Joseph-des-Nations,"161 Rue Saint-Maur, 75011 Paris, France",Paris,FR,churches,48.869169,2.373916,4.6,156.0
Saint Vincent of Paul Chapel,"95 Rue de Sèvres, 75006 Paris, France",Paris,FR,churches,48.848882,2.321666,4.8,513.0
Saint-Ignace Catholic Church,"33 Rue de Sèvres, 75006 Paris, France",Paris,FR,churches,48.850637,2.326245,4.7,263.0
Saint-Joseph-des-Carmes,"70 Rue de Vaugirard, 75006 Paris, France",Paris,FR,churches,48.848323,2.330385,4.6,125.0
L’Église de Jésus-Christ des Saints des Derniers Jours,"12 Rue Saint-Merri, 75004 Paris, France",Paris,FR,churches,48.85931,2.353166,4.8,90.0
Basilique Sainte-Jeanne-d'Arc de Paris - Paroisse St Denys de la Chapelle,"18 Rue de la Chapelle, 75018 Paris, France",Paris,FR,churches,48.891493,2.360056,4.6,11.0
Parish Church of Saint Ferdinand des Ternes,"27 Rue d'Armaillé, 75017 Paris, France",Paris,FR,churches,48.878884,2.290698,4.6,393.0
Catholic Church of Our Lady of the Cross of Ménilmontant,"3 Pl. de Ménilmontant, 75020 Paris, France",Paris,FR,churches,48.868654,2.387231,4.6,281.0
Church of Notre-Dame de Bonne-Nouvelle,"25 Rue de la Lune, 75002 Paris, France",Paris,FR,churches,48.869719,2.349939,4.5,149.0
Notre-Dame Cathedral of Paris,"6 Parvis Notre-Dame - Pl. Jean-Paul II, 75004 Paris, France",Paris,FR,cathedrals,48.852968,2.349902,4.7,60631.0
Cathedrale Saint Alexandre Nevsky,"12 Rue Daru, 75008 Paris, France",Paris,FR,cathedrals,48.87764,2.301921,4.7,950.0
Paroisse Sainte Clotilde,"12 Rue de Martignac, 75007 Paris, France",Paris,FR,cathedrals,48.85873,2.318952,0.0,0.0
Benedictines of the Sacred Heart of Montmartre,"3 Cité du Sacré-Cœur, 75018 Paris, France",Paris,FR,monasteries,48.887104,2.342298,4.7,203.0
Monastère Notre-Dame de la Présence de Dieu,"2 Rue Mesnil, 75116 Paris, France",Paris,FR,monasteries,48.869239,2.284911,4.8,43.0
Basilique du Sacré-Cœur de Montmartre,"35 Rue du Chevalier de la Barre, 75018 Paris, France",Paris,FR,monasteries,48.886705,2.343104,4.7,145215.0
Monastère de la Visitation,"68 Av. Denfert Rochereau, 75014 Paris, France",Paris,FR,monasteries,48.838378,2.335562,4.3,38.0
Saint-Martin-des-Champs Priory,"270 Rue Saint-Martin, 75003 Paris, France",Paris,FR,monasteries,48.866291,2.35416,4.5,73.0
Abbaye Sainte Marie de la Source,"3 Rue de la Source, 75016 Paris, France",Paris,FR,monasteries,48.85124,2.269058,4.6,10.0
Monastery of the Annunciation,"adresse postale 38 Rue Jean François Marmontel entrée:, 91 Rue du Pavé de Grignon et Entrée:, 94320 Thiais, France",Paris,FR,monasteries,48.7543,2.395353,4.8,58.0
Abbaye aux Bois,"11 Rue de la Chaise, 75007 Paris, France",Paris,FR,monasteries,48.852535,2.327122,4.7,3.0
Grand Synagogue of Paris,"44 Rue de la Victoire, 75009 Paris, France",Paris,FR,synagogues,48.875394,2.336432,4.6,519.0
Nazareth Synagogue,"15 Rue Notre Dame de Nazareth, 75003 Paris, France",Paris,FR,synagogues,48.867061,2.360041,4.8,284.0
Agoudas Hakehilos Synagogue,"10 Rue Pavée, 75004 Paris, France",Paris,FR,synagogues,48.856002,2.360527,4.6,141.0
Tournelles Synagogue,"21bis Rue des Tournelles, 75004 Paris, France",Paris,FR,synagogues,48.855453,2.36712,4.7,265.0
Kehilat Gesher Association,"11 Av. de la Prte de Champerret, 75017 Paris, France",Paris,FR,synagogues,48.886222,2.286048,4.9,33.0
Synagogue de la Roquette,"84 Rue de la Roquette, 75011 Paris, France",Paris,FR,synagogues,48.856063,2.376214,4.8,58.0
Synagogue Montmartre,"13 Rue Sainte-Isaure, 75018 Paris, France",Paris,FR,synagogues,48.893653,2.34407,4.8,5.0
Grande Mosquée de Paris,"2bis Pl. du Puits de l'Ermite, 75005 Paris, France",Paris,FR,mosques,48.842385,2.35469,4.5,14229.0
Masjid Ali ibn Abi Talib,"83 Rue du Faubourg Saint-Denis, 75010 Paris, France",Paris,FR,mosques,48.873496,2.354682,4.2,591.0
Mosquée de Saint-Ouen,"3 Rue des Docks, 93400 Saint-Ouen-sur-Seine, France",Paris,FR,mosques,48.90756,2.32546,4.7,677.0
Grande Mosquée de la Villette,"15 Av. de la Prte de la Villette, 75019 Paris, France",Paris,FR,mosques,48.899599,2.385551,4.8,106.0
Mosquée Omar,"2 Rue Morand, 75011 Paris, France",Paris,FR,mosques,48.86793,2.37717,4.6,407.0
Great Mosque of Bagnolet,"Mosquée De Bagnolet, 60 Rue Hoche 57, 93170 Bagnolet, France",Paris,FR,mosques,48.870495,2.414224,4.7,831.0
Mosque Abou Bakar,"39 Bd de Belleville, 75011 Paris, France",Paris,FR,mosques,48.869056,2.380196,4.5,79.0
Temple Ganesh,"17 Rue Pajol, 75018 Paris, France",Paris,FR,temples,48.885944,2.360689,4.5,550.0
Sri Ayyappan Temple Paris,"97 Rue Philippe de Girard, 75018 Paris, France",Paris,FR,temples,48.889194,2.360402,4.9,15.0
Radha Krishna Temple,"230 Av. de la Division Leclerc, 95200 Sarcelles, France",Paris,FR,temples,48.989849,2.373863,4.8,165.0
Paris France Temple,"46 Bd Saint-Antoine, 78150 Versailles, France",Paris,FR,temples,48.818274,2.123036,4.8,550.0
The Great Pagoda,"40 Bis Rte de Ceinture du Lac Daumesnil, 75012 Paris, France",Paris,FR,temples,48.828487,2.415302,4.4,866.0
HALL OF PARIS,"40 Rue des Blancs Manteaux, 75004 Paris, France",Paris,FR,temples,48.859843,2.355188,5.0,3.0
Autel de Culte de Bouddha,"37 Rue du Disque, 75013 Paris, France",Paris,FR,temples,48.824689,2.364822,4.8,13.0
Théâtre Mogador,"25 Rue de Mogador, 75009 Paris, France",Paris,FR,theatres,48.875347,2.331067,4.7,11442.0
Théâtre Edouard VII,"10 Pl. Édouard VII, 75009 Paris, France",Paris,FR,theatres,48.871348,2.329391,4.5,3619.0
Palais Garnier,"Pl. de l'Opéra, 75009 Paris, France",Paris,FR,theatres,48.87197,2.331601,4.7,50060.0
Théâtre de la Gaîté-Montparnasse,"26 Rue de la Gaité, 75014 Paris, France",Paris,FR,theatres,48.839302,2.323101,4.4,3169.0
Théâtre de la Huchette,"23 Rue de la Huchette, 75005 Paris, France",Paris,FR,theatres,48.853037,2.34536,4.6,708.0
Théâtre des Mathurins,"36 Rue des Mathurins, 75008 Paris, France",Paris,FR,theatres,48.873298,2.325565,4.5,3324.0
Théâtre de Paris,"15 Rue Blanche, 75009 Paris, France",Paris,FR,theatres,48.878626,2.331496,4.4,4079.0
Essaïon Théâtre,"6 Rue Pierre au Lard, 75004 Paris, France",Paris,FR,theatres,48.859704,2.35331,4.5,1130.0
Opera National de Paris,"Pl. de la Bastille, 75012 Paris, France",Paris,FR,theatres,48.8525,2.370342,4.6,8174.0
Bobino,"14-20 Rue de la Gaité, 75014 Paris, France",Paris,FR,theatres,48.839841,2.323009,4.5,3998.0
Comédie Française,"1 Place Colette, 75001 Paris, France",Paris,FR,theatres,48.863571,2.335938,4.7,4257.0
Paradis Latin,"28 Rue du Cardinal Lemoine, 75005 Paris, France",Paris,FR,theatres,48.848017,2.352934,4.4,1714.0
Théâtre du Châtelet,"1 Pl. du Châtelet, 75001 Paris, France",Paris,FR,theatres,48.857728,2.34631,4.5,4633.0
Bataclan,"50 Bd Voltaire, 75011 Paris, France",Paris,FR,theatres,48.86316,2.370788,4.5,5442.0
Odéon Theatre,"Pl. de l'Odéon, 75006 Paris, France",Paris,FR,theatres,48.849495,2.338703,4.6,1560.0
Café de la Gare,"41 Rue du Temple, 75004 Paris, France",Paris,FR,theatres,48.859674,2.353714,4.5,1989.0
Great Happy Comedy,"40 Rue de Clichy, 75009 Paris, France",Paris,FR,theatres,48.879444,2.329444,4.4,3789.0
Le Point Virgule,"7 Rue Sainte-Croix de la Bretonnerie, 75004 Paris, France",Paris,FR,theatres,48.857857,2.356906,4.4,2785.0
Théâtre de la Ville,"2 Pl. du Châtelet, 75004 Paris, France",Paris,FR,theatres,48.857357,2.348261,4.5,377.0
Théâtre National de Chaillot,"1 Pl. du Trocadéro et du 11 Novembre, 75116 Paris, France",Paris,FR,theatres,48.862741,2.288474,4.6,763.0
Théâtre des Nouveautés,"24 Bd Poissonnière, 75009 Paris, France",Paris,FR,theatres,48.871384,2.34482,4.0,3178.0
Théâtre des Deux Ânes,"100 Bd de Clichy, 75018 Paris, France",Paris,FR,theatres,48.884249,2.331618,4.5,734.0
Théâtre du Ranelagh,"5 Rue des Vignes, 75016 Paris, France",Paris,FR,theatres,48.854613,2.277651,4.6,1244.0
Grand Rex,"1 Bd Poissonnière, 75002 Paris, France",Paris,FR,theatres,48.870545,2.347687,4.5,19757.0
Théâtre Antoine-Simone Berriau,"14 Bd de Strasbourg, 75010 Paris, France",Paris,FR,theatres,48.8706,2.355212,4.3,3244.0
Le Splendid,"48 Rue du Faubourg Saint-Martin, 75010 Paris, France",Paris,FR,theatres,48.87061,2.357066,4.3,1420.0
Théâtre Daunou,"7 Rue Daunou, 75002 Paris, France",Paris,FR,theatres,48.869311,2.331941,4.2,309.0
Palais Garnier,"Pl. de l'Opéra, 75009 Paris, France",Paris,FR,opera house,48.87197,2.331601,4.7,50060.0
Opera National de Paris,"Pl. de la Bastille, 75012 Paris, France",Paris,FR,opera house,48.8525,2.370342,4.6,8174.0
Paris Philharmonic,"221 Av. Jean Jaurès, 75019 Paris, France",Paris,FR,concert hall,48.891296,2.394296,4.7,5845.0
La Cigale,"120 Blvd Marguerite de Rochechouart, 75018 Paris, France",Paris,FR,concert hall,48.882327,2.340174,4.4,6010.0
Palais Garnier,"Pl. de l'Opéra, 75009 Paris, France",Paris,FR,concert hall,48.87197,2.331601,4.7,50060.0
Zenith Paris - La Villette,"211 Av. Jean Jaurès, 75019 Paris, France",Paris,FR,concert hall,48.894205,2.393228,4.3,10376.0
Le Trianon,"80 Blvd Marguerite de Rochechouart, 75018 Paris, France",Paris,FR,concert hall,48.883084,2.343047,4.6,5107.0
L'Olympia,"28 Bd des Capucines, 75009 Paris, France",Paris,FR,concert hall,48.870167,2.328375,4.5,12749.0
Accor Arena,"8 Bd de Bercy, 75012 Paris, France",Paris,FR,concert hall,48.838604,2.37847,4.4,34667.0
Bataclan,"50 Bd Voltaire, 75011 Paris, France",Paris,FR,concert hall,48.86316,2.370788,4.5,5442.0
La Maroquinerie,"23 Rue Boyer, 75020 Paris, France",Paris,FR,concert hall,48.868528,2.39198,4.6,2208.0
Casino de Paris,"16 Rue de Clichy, 75009 Paris, France",Paris,FR,concert hall,48.878315,2.330108,4.2,6383.0
Palais des Congrès de Paris,"2 Pl de la Pte Maillot, 75017 Paris, France",Paris,FR,concert hall,48.879384,2.283644,4.4,5407.0
Salle Pleyel,"252 Rue du Faubourg Saint-Honoré, 75008 Paris, France",Paris,FR,concert hall,48.877004,2.301051,4.5,6111.0
La Bellevilloise,"19-21 Rue Boyer, 75020 Paris, France",Paris,FR,concert hall,48.868351,2.392157,4.3,6069.0
L'Élysée Montmartre,"72 Blvd Marguerite de Rochechouart, 75018 Paris, France",Paris,FR,concert hall,48.883052,2.34375,4.6,3080.0
The Dome of Paris,"34 Bd Victor, 75015 Paris, France",Paris,FR,concert hall,48.832764,2.286301,4.3,9314.0
Opera National de Paris,"Pl. de la Bastille, 75012 Paris, France",Paris,FR,concert hall,48.8525,2.370342,4.6,8174.0
Petit Bain,"7 Port de la Gare, 75013 Paris, France",Paris,FR,concert hall,48.835526,2.376712,4.3,2942.0
Théâtre des Champs-Élysées,"15 Av. Montaigne, 75008 Paris, France",Paris,FR,concert hall,48.865685,2.303187,4.5,4367.0
La Boule Noire,"120 Blvd Marguerite de Rochechouart, 75018 Paris, France",Paris,FR,concert hall,48.882336,2.340295,4.6,801.0
Cité de la Musique,"221 Av. Jean Jaurès, 75019 Paris, France",Paris,FR,concert hall,48.889679,2.394021,4.6,6689.0
Alhambra Theater,"21 Rue Yves Toudic, 75010 Paris, France",Paris,FR,concert hall,48.870658,2.36307,4.3,2752.0
Grand Auditorium,"116 Av. du Président Kennedy, 75016 Paris, France",Paris,FR,concert hall,48.852385,2.279006,4.8,648.0
Les Trois Baudets,"64 Bd de Clichy, 75018 Paris, France",Paris,FR,concert hall,48.883516,2.334484,4.5,289.0
Centre de musique de chambre de Paris,"58 Rue de Monceau, 75008 Paris, France",Paris,FR,concert hall,48.878329,2.312161,4.9,17.0
Salon de the’,"18 Rue de Caumartin, 75009 Paris, France",Paris,FR,concert hall,48.871417,2.32823,4.6,260.0
Supersonic,"9 Rue Biscornet, 75012 Paris, France",Paris,FR,concert hall,48.850313,2.369708,4.3,3113.0
Les Étoiles,"61 Rue du Château d'Eau, 75010 Paris, France",Paris,FR,concert hall,48.87251,2.355209,4.6,3448.0
Studio de l'Ermitage,"8 Rue de l'Ermitage, 75020 Paris, France",Paris,FR,concert hall,48.87,2.391667,4.7,771.0
Bobino,"14-20 Rue de la Gaité, 75014 Paris, France",Paris,FR,concert hall,48.839841,2.323009,4.5,3998.0
Salle Gaveau,"45 Rue La Boétie, 75008 Paris, France",Paris,FR,concert hall,48.8735,2.31405,4.4,1314.0
New Morning,"7/9 R. des Petites Écuries, 75010 Paris, France",Paris,FR,concert hall,48.872994,2.353331,4.5,2367.0
National Theatre of the Opera Comique,"1 Pl. Boieldieu, 75002 Paris, France",Paris,FR,concert hall,48.871203,2.337836,4.7,1316.0
Bouffes du Nord theater,"37 bis Bd de la Chapelle, 75010 Paris, France",Paris,FR,concert hall,48.884193,2.358904,4.5,1076.0
Grand Amphithéâtre de la Sorbonne,"47 Rue des Écoles, 75005 Paris, France",Paris,FR,concert hall,48.849324,2.343956,4.7,193.0
L'International,"5/7 Rue Moret, 75011 Paris, France",Paris,FR,concert hall,48.86673,2.379767,3.9,1251.0
Les Pianissimes | Concerts et festival de piano et musique de chambre (Paris / Val de Saône),"204 Rue Saint-Martin, 75003 Paris, France",Paris,FR,concert hall,48.863341,2.352653,5.0,6.0
Café de la Danse,"5 Pass. Louis-Philippe, 75011 Paris, France",Paris,FR,concert hall,48.854069,2.372902,4.5,1467.0
Phantom Paris,"8 Bd de Bercy, 75012 Paris, France",Paris,FR,concert hall,48.838669,2.378482,3.8,457.0
Salle Cortot,"78 Rue Cardinet, 75017 Paris, France",Paris,FR,concert hall,48.88421,2.309256,4.7,460.0
La Maison des Métallos,"94 Rue Jean-Pierre Timbaud, 75011 Paris, France",Paris,FR,concert hall,48.867727,2.377898,4.5,506.0
Paris La Défense Arena,"99 Jard. de l'Arche, 92000 Nanterre, France",Paris,FR,concert hall,48.895666,2.229626,4.3,12841.0
Siren of Paris,"20 Rue Dareau, 75014 Paris, France",Paris,FR,concert hall,48.831409,2.337468,4.3,91.0
La Machine du Moulin Rouge,"90 Bd de Clichy, 75018 Paris, France",Paris,FR,concert hall,48.884201,2.33224,3.8,1176.0
Pan Piper,"Lieu évènementiel, 2-4 Imp. Lamier, 75011 Paris, France",Paris,FR,concert hall,48.857867,2.389059,4.2,140.0
L'Alimentation Générale,"64 Rue Jean-Pierre Timbaud, 75011 Paris, France",Paris,FR,concert hall,48.866702,2.374487,3.9,1330.0
El Alamein Sarl,"8 Port de la Gare, 75013 Paris, France",Paris,FR,concert hall,48.834376,2.377968,4.4,733.0
Badaboum,"2 bis Rue des Taillandiers, 75011 Paris, France",Paris,FR,concert hall,48.853541,2.375717,3.9,1998.0
Grand Rex,"1 Bd Poissonnière, 75002 Paris, France",Paris,FR,concert hall,48.870545,2.347687,4.5,19757.0
Théâtre Edouard VII,"10 Pl. Édouard VII, 75009 Paris, France",Paris,FR,concert hall,48.871348,2.329391,4.5,3619.0
Le Bal Blomet,"33 Rue Blomet, 75015 Paris, France",Paris,FR,concert hall,48.842712,2.306137,4.7,272.0
Backstage By The Mill,"92 Bis Bd de Clichy, 75018 Paris, France",Paris,FR,concert hall,48.884301,2.332068,4.2,139.0
CRL 10 - The Canal Scene - Jemmapes,"116 Quai de Jemmapes, 75010 Paris, France",Paris,FR,concert hall,48.874899,2.363969,4.2,46.0
The Hall of Song,"211 Av. Jean Jaurès, 75019 Paris, France",Paris,FR,concert hall,48.892232,2.389771,4.7,90.0
Maison de la Radio et de la Musique - Radio France,"116 Av. du Président Kennedy, 75016 Paris, France",Paris,FR,concert hall,48.852495,2.278252,4.6,3834.0
Salle Colonne,"94 Bd Auguste Blanqui, 75013 Paris, France",Paris,FR,concert hall,48.831029,2.34515,4.3,308.0
The Centquatre-Paris,"5 Rue Curial, 75019 Paris, France",Paris,FR,concert hall,48.889982,2.371434,4.5,6662.0
Salle Erard - pop-up hamilton conte,"13 Rue du Mail, 75002 Paris, France",Paris,FR,concert hall,48.866764,2.34231,4.6,12.0
Le Duc des Lombards,"42 Rue des Lombards, 75001 Paris, France",Paris,FR,concert hall,48.859705,2.348615,4.5,1804.0
Théâtre du Gymnase Marie Bell,"38 Bd de Bonne Nouvelle, 75010 Paris, France",Paris,FR,concert hall,48.870765,2.348819,4.2,3274.0
Cirque d'Hiver Bouglione,"110 Rue Amelot, 75011 Paris, France",Paris,FR,concert hall,48.863302,2.367218,4.6,6268.0
UGC Cine Cite les Halles,"7 place De La Rotonde, 75001 Paris, France",Paris,FR,cinemas,48.862779,2.342814,3.9,10179.0
Pathe,"Centre Commercial Beaugrenelle, Rue Linois, 75015 Paris, France",Paris,FR,cinemas,48.849136,2.282733,4.4,4839.0
Cinéma Cgr Paris Lilas,"Pl. du Maquis du Vercors, 75020 Paris, France",Paris,FR,cinemas,48.877576,2.409525,4.0,2328.0
Pathé Wepler,"Côté Place, 140 Bd de Clichy, 75018 Paris, France",Paris,FR,cinemas,48.884033,2.327935,4.1,4532.0
Cinémathèque Française,"51 Rue de Bercy, 75012 Paris, France",Paris,FR,cinemas,48.837222,2.3825,4.4,2824.0
Le Louxor,"170 Bd de Magenta, 75010 Paris, France",Paris,FR,cinemas,48.883549,2.349833,4.5,1690.0
Grand Rex,"1 Bd Poissonnière, 75002 Paris, France",Paris,FR,cinemas,48.870545,2.347687,4.5,19757.0
Forum des images,"2 Rue du cinéma, 75001 Paris, France",Paris,FR,cinemas,48.862472,2.345099,4.5,792.0
UGC Ciné Cité Bercy,"2 Cr Saint-Emilion, 75012 Paris, France",Paris,FR,cinemas,48.832146,2.385237,4.3,9577.0
Le Champo,"51 Rue des Écoles, 75005 Paris, France",Paris,FR,cinemas,48.849985,2.343108,4.6,577.0
Gaumont Champs-Élysées,"27-33 Av. des Champs-Élysées, 75008 Paris, France",Paris,FR,cinemas,48.86945,2.307193,4.0,2864.0
UGC Ciné Cité Paris 19,"166 Bd Macdonald, 75019 Paris, France",Paris,FR,cinemas,48.899269,2.376764,4.4,4935.0
MK2 Bibliothèque,"128 - 162 Av. de France, 75013 Paris, France",Paris,FR,cinemas,48.832691,2.375242,4.4,12509.0
Cinéma Studio 28,"10 Rue Tholozé, 75018 Paris, France",Paris,FR,cinemas,48.886151,2.33536,4.7,596.0
Pathé Palace,"2 Bd des Capucines, 75009 Paris, France",Paris,FR,cinemas,48.871118,2.333878,4.0,3156.0
Pathé Alésia,"73 Av. du Général Leclerc, 75014 Paris, France",Paris,FR,cinemas,48.828148,2.327757,4.2,4293.0
Pathé Opéra Premier,"Opéra Premier, 32 Rue Louis le Grand, 75002 Paris, France",Paris,FR,cinemas,48.870657,2.334365,4.1,1686.0
Max Linder Panorama,"24 Bd Poissonnière, 75009 Paris, France",Paris,FR,cinemas,48.871381,2.344847,4.7,1538.0
Pathé Les Fauvettes,"58 Av. des Gobelins, 75013 Paris, France",Paris,FR,cinemas,48.833588,2.353661,4.5,1849.0
Cinema Balzac,"1 Rue Balzac, 75008 Paris, France",Paris,FR,cinemas,48.872941,2.299875,4.5,828.0
UGC Montparnasse,"83 Bd du Montparnasse, 75006 Paris, France",Paris,FR,cinemas,48.843524,2.325862,3.7,3225.0
Christine 21,"4 Rue Christine, 75006 Paris, France",Paris,FR,cinemas,48.854458,2.340162,4.6,520.0
Studio Galande,"42 Rue Galande, 75005 Paris, France",Paris,FR,cinemas,48.851624,2.347099,4.2,424.0
Pathé - Les 7 Batignolles,"Au fond de l'allée, 86 Rue Mstislav Rostropovitch, 75017 Paris, France",Paris,FR,cinemas,48.892188,2.31057,4.5,1524.0
Mk2 Odéon (Côté StMichel),"7 Rue Hautefeuille, 75006 Paris, France",Paris,FR,cinemas,48.85224,2.34283,4.4,239.0
Pathé Convention,"29 Rue Alain Chartier, 75015 Paris, France",Paris,FR,cinemas,48.837716,2.296456,4.2,2693.0
UGC Lyon Bastille,"12 Rue de Lyon, 75012 Paris, France",Paris,FR,cinemas,48.847575,2.372012,3.8,2955.0
Filmothèque du Quartier Latin,"9 Rue Champollion, 75005 Paris, France",Paris,FR,cinemas,48.849538,2.342831,4.6,732.0
UGC Odéon,"124 Bd Saint-Germain, 75006 Paris, France",Paris,FR,cinemas,48.852351,2.33988,3.9,1028.0
UGC Danton,"99 Bd Saint-Germain, 75006 Paris, France",Paris,FR,cinemas,48.852115,2.338948,4.0,925.0
Pathé Quai d’Ivry,"5 Rue François Mitterrand, 94200 Ivry-sur-Seine, France",Paris,FR,cinemas,48.824151,2.388362,4.3,6786.0
Publicis Cinémas,"129 Av. des Champs-Élysées, 75008 Paris, France",Paris,FR,cinemas,48.872747,2.297104,4.4,701.0
UGC Gobelins,"66 bis Av. des Gobelins, 75013 Paris, France",Paris,FR,cinemas,48.832891,2.354259,4.1,2215.0
UGC Cine Cite,"2 Pl de la Pte Maillot, 75017 Paris, France",Paris,FR,cinemas,48.879451,2.284336,3.8,724.0
Pathé Aquaboulevard,"16 Rue du Colonel Pierre Avia, 75015 Paris, France",Paris,FR,cinemas,48.83078,2.276145,4.1,3913.0
Le Brady,"39 Bd de Strasbourg, 75010 Paris, France",Paris,FR,cinemas,48.871819,2.355425,4.4,810.0
Les 7 Parnassiens,"98 Boulevard du Montparnasse, 16 Rue Delambre, 75014 Paris, France",Paris,FR,cinemas,48.842354,2.32758,4.3,1073.0
La Géode,"26 Av. Corentin Cariou, 75019 Paris, France",Paris,FR,cinemas,48.89456,2.388667,4.3,1157.0
MK2 Quai de Loire,"7 Quai de la Loire, 75019 Paris, France",Paris,FR,cinemas,48.884396,2.372458,4.3,4089.0
Escurial,"11 Bd de Port-Royal, 75013 Paris, France",Paris,FR,cinemas,48.83682,2.349589,4.5,513.0
Pathé Parnasse,"3 Rue d'Odessa, 75014 Paris, France",Paris,FR,cinemas,48.843113,2.324431,3.9,6211.0
Comme des Cinemas,"10 Vla Laugier, 75017 Paris, France",Paris,FR,cinemas,48.882481,2.295216,5.0,2.0
Lucernaire,"53 Rue Notre Dame des Champs, 75006 Paris, France",Paris,FR,cinemas,48.844252,2.330413,4.5,810.0
L'Arlequin,"76 Rue de Rennes, 75006 Paris, France",Paris,FR,cinemas,48.85112,2.330491,4.3,870.0
Cinéma Saint-André des Arts,"30 Rue Saint-André des Arts, 75006 Paris, France",Paris,FR,cinemas,48.853386,2.342063,4.4,477.0
L'Entrepôt l Cinéma & Concerts,"7 Rue Francis de Pressensé, 75014 Paris, France",Paris,FR,cinemas,48.833919,2.316579,4.2,1218.0
Cinéma du Panthéon,"13 Rue Victor Cousin, 75005 Paris, France",Paris,FR,cinemas,48.847431,2.342269,4.5,327.0
MK2 Beaubourg,"50 Rue Rambuteau, 75003 Paris, France",Paris,FR,cinemas,48.861615,2.352209,4.0,1013.0
Le Grand Action,"5 Rue des Écoles, 75005 Paris, France",Paris,FR,cinemas,48.847536,2.352139,4.6,608.0
L'Epée de Bois,"100 Rue Mouffetard, 75005 Paris, France",Paris,FR,cinemas,48.841279,2.349553,4.3,372.0
Bastille Majestic Cinema Paris,"2/4 Bd Richard-Lenoir, 75011 Paris, France",Paris,FR,cinemas,48.85403,2.369978,4.1,529.0
Nouvel Odéon,"6 Rue de l'Ecole de Médecine, 75006 Paris, France",Paris,FR,cinemas,48.850756,2.341796,4.6,258.0
LUMINOR Town Hall,"20 Rue du Temple, 75004 Paris, France",Paris,FR,cinemas,48.858665,2.353583,4.4,657.0
Les 5 Caumartin,"101 Rue Saint-Lazare, 75009 Paris, France",Paris,FR,cinemas,48.875608,2.327922,4.2,890.0
MK2 Cinémas,"14 Quai de la Seine, 75019 Paris, France",Paris,FR,cinemas,48.885132,2.371646,4.4,519.0
UGC Ciné Cité O'Parinor,"Le Haut De Galy, Centre Commercial O'Parinor, 93600 Aulnay-sous-Bois, France",Paris,FR,cinemas,48.959703,2.474978,4.0,3307.0
mk2 Odéon (côté St Germain),"113 Bd Saint-Germain, 75006 Paris, France",Paris,FR,cinemas,48.852467,2.338191,4.0,1329.0
Espace Saint-Michel,"7 Pl. Saint-Michel, 75005 Paris, France",Paris,FR,cinemas,48.853092,2.344262,4.4,314.0
L'Archipel,"17 Bd de Strasbourg, 75010 Paris, France",Paris,FR,cinemas,48.870469,2.354658,4.3,509.0
Ōma Cinema,"38 Rue de Trévise, 75009 Paris, France",Paris,FR,cinemas,48.875321,2.345571,4.8,4.0
Parc Monceau,"35 Bd de Courcelles, 75008 Paris, France",Paris,FR,parks,48.879684,2.308955,4.6,21122.0
Parc des Buttes-Chaumont,"75019 Paris, France",Paris,FR,parks,48.88095,2.382761,4.6,25914.0
Tuileries Garden,"75001 Paris, France",Paris,FR,parks,48.863492,2.327494,4.6,109744.0
Parc Montsouris,"2 Rue Gazan, 75014 Paris, France",Paris,FR,parks,48.822672,2.33766,4.6,16463.0
Jardin d'Acclimatation,"Bois de Boulogne, Rte de la Prte Dauphine à la Prte des Sablons, 75116 Paris, France",Paris,FR,parks,48.877781,2.269764,4.3,18085.0
Jardin du Luxembourg,"75006 Paris, France",Paris,FR,parks,48.846614,2.336331,4.7,113659.0
Parc Floral de Paris,"Rte de la Pyramide, 75012 Paris, France",Paris,FR,parks,48.837702,2.444298,4.5,15267.0
Jardins du Trocadéro,"Pl. du Trocadéro et du 11 Novembre, 75016 Paris, France",Paris,FR,parks,48.861688,2.28928,4.6,140113.0
Parc de Bercy,"128 Quai de Bercy, 75012 Paris, France",Paris,FR,parks,48.836316,2.381295,4.0,33583.0
La Villette,"211 Av. Jean Jaurès, 75019 Paris, France",Paris,FR,parks,48.893849,2.39026,4.4,66602.0
Bois de Vincennes,"Rte de la Pyramide, 75012 Paris, France",Paris,FR,parks,48.82828,2.433097,4.5,40358.0
Jardin du Palais Royal,"8 Rue de Montpensier, 75001 Paris, France",Paris,FR,parks,48.864972,2.337806,4.7,7964.0
Champ de Mars,"75007 Paris, France",Paris,FR,parks,48.855805,2.298377,4.6,206665.0
Bois de Boulogne,"75016 Paris, France",Paris,FR,parks,48.861984,2.252314,4.3,28005.0
Jardin des Plantes,"75005 Paris, France",Paris,FR,parks,48.843907,2.359658,4.6,48366.0
Belleville Park,"47 Rue des Couronnes, 75020 Paris, France",Paris,FR,parks,48.871068,2.384705,4.2,5786.0
Jardin des Champs-Élysées,"10 Av. des Champs-Élysées, 75008 Paris, France",Paris,FR,parks,48.867248,2.31794,4.5,2300.0
Square Jean XXIII,"4 Parvis Notre-Dame - Pl. Jean-Paul II, 75004 Paris, France",Paris,FR,parks,48.852408,2.350872,4.5,15584.0
Parc Georges-Brassens,"2 Pl. Jacques Marette, 75015 Paris, France",Paris,FR,parks,48.831521,2.299789,4.4,6356.0
Parc Clichy-Batignolles - Martin Luther King,"147 Rue Cardinet, 75017 Paris, France",Paris,FR,parks,48.891173,2.314303,4.4,6338.0
Ile Saint-Germain Park,"170 Quai de Stalingrad, 92130 Issy-les-Moulineaux, France",Paris,FR,parks,48.826463,2.255761,4.6,4478.0
Coulée Verte René-Dumont,"1 Coulée Verte René-Dumont, 75012 Paris, France",Paris,FR,parks,48.849455,2.371486,4.5,5854.0
Parc André Citroën,"2 Rue Cauchy, 75015 Paris, France",Paris,FR,parks,48.841083,2.274655,4.4,9699.0
Port de l'Arsenal Garden,"53 Bd de la Bastille, 75012 Paris, France",Paris,FR,parks,48.84973,2.367874,4.4,2409.0
Square du Vert-Galant,"15 Pl. du Pont Neuf, 75001 Paris, France",Paris,FR,parks,48.857487,2.340168,4.5,1375.0
Parc Cité internationale universitaire de Paris,"Unnamed Road, 27f Bd Jourdan, 75014 Paris, France",Paris,FR,parks,48.81838,2.33792,4.7,724.0
Square du Temple - Elie Wiesel,"64 Rue de Bretagne, 75003 Paris, France",Paris,FR,parks,48.864487,2.360721,4.3,3332.0
Parc Bagatelle - la Roseraie,"42 Rte de Sèvres À Neuilly, 75016 Paris, France",Paris,FR,parks,48.87027,2.245969,4.6,4528.0
Parc Kellermann,"19 Rue de la Poterne des Peupliers, 75013 Paris, France",Paris,FR,parks,48.8189,2.354709,4.4,2186.0
Square des Batignolles,"144bis Rue Cardinet, 75017 Paris, France",Paris,FR,parks,48.8875,2.316479,4.5,3629.0
Rosiers Joseph Migneret Garden,"10 Rue des Rosiers, 75004 Paris, France",Paris,FR,parks,48.8573,2.360222,4.5,859.0
Jardins de l'avenue Foch,"Av. Foch, 75116 Paris, France",Paris,FR,parks,48.872775,2.283658,4.3,1086.0
Berges de Seine,"Quai d'Orsay, 75000 Paris, France",Paris,FR,parks,48.863001,2.309851,4.5,534.0
Square Louise Michel,"6 Pl. Saint-Pierre, 75018 Paris, France",Paris,FR,parks,48.885012,2.343392,4.5,7706.0
Parc de la Butte-du-Chapeau-Rouge,"5 Av. Debidour, 75019 Paris, France",Paris,FR,parks,48.881852,2.398961,4.3,1853.0
Parc Marcel Bleustein Blanchet dit Parc de la Turlure,"1 Rue de la Bonne, 75018 Paris, France",Paris,FR,parks,48.887804,2.343734,4.5,716.0
Tino Rossi Garden,"2 Quai Saint-Bernard, 75005 Paris, France",Paris,FR,parks,48.847064,2.360858,4.5,1756.0
Square Saint-Lambert,"2 Rue Jean Formigé, 75015 Paris, France",Paris,FR,parks,48.842244,2.296935,4.3,2034.0
Jardins des Archives Nationales,"60 Rue des Francs Bourgeois, 75003 Paris, France",Paris,FR,parks,48.85997,2.357296,4.6,1048.0
Lac des Minimes,"1 Rte de la Cascade, 75012 Paris, France",Paris,FR,parks,48.836051,2.458597,4.5,290.0
Jardin du Carrousel,"6 Av. du Général Lemonnier, 75001 Paris, France",Paris,FR,parks,48.861997,2.33207,4.7,332.0
Jardin des Serres d’auteuil,"3 Av. de la Prte d'Auteuil, 75016 Paris, France",Paris,FR,parks,48.846308,2.252186,4.6,3493.0
Jardin du Ranelagh,"1 Av. Prudhon, 75016 Paris, France",Paris,FR,parks,48.858875,2.268776,4.4,2483.0
Staircase To Paris Highline,"11 Av. Daumesnil, 75012 Paris, France",Paris,FR,parks,48.848827,2.37257,4.8,49.0
Square Maurice Gardette,"2 Rue du Général Blaise, 75011 Paris, France",Paris,FR,parks,48.861645,2.379168,4.3,1329.0
Park Cormailles,"Av. Georges Gosnat, 94200 Ivry-sur-Seine, France",Paris,FR,parks,48.816351,2.387257,4.3,992.0
Square Sarah Bernhardt,"2 Rue de Buzenval, 75020 Paris, France",Paris,FR,parks,48.849345,2.40402,4.3,1287.0
Square Nadar,"2 Rue Saint-Éleuthère, 75018 Paris, France",Paris,FR,parks,48.885954,2.341927,4.5,230.0
Square Jehan Rictus,"14 Pl. des Abbesses, 75018 Paris, France",Paris,FR,parks,48.884748,2.338642,4.4,5604.0
Passy Park,"32 Av. du Président Kennedy, 75016 Paris, France",Paris,FR,parks,48.855792,2.283427,4.5,581.0
Jardin Atlantique,"1 Pl. des Cinq Martyrs du Lycée Buffon, 75015 Paris, France",Paris,FR,parks,48.839801,2.318854,4.0,1383.0
Esplanade Jacques-Chaban-Delmas,"Esplanade Jacques Chaban-Delmas, 75007 Paris, France",Paris,FR,parks,48.848272,2.311761,4.4,168.0
Square des Recollets,"86 Quai de Valmy, 75010 Paris, France",Paris,FR,parks,48.873782,2.363442,4.2,228.0
Villemin - Mahsa Jîna Amini Garden,"14 Rue des Récollets, 75010 Paris, France",Paris,FR,parks,48.875112,2.361841,4.2,3669.0
Square Marigny,"Unnamed Road, Av. de Marigny, 75008 Paris, France",Paris,FR,parks,48.869069,2.312494,4.4,304.0
Chapelle Charbon Park,"5Z Rue de la Croix Moreau, 75018 Paris, France",Paris,FR,parks,48.896389,2.363885,4.2,171.0
Île-Saint-Denis State Park,"Quai de la Marine, 93450 L'Île-Saint-Denis, France",Paris,FR,parks,48.949265,2.312734,4.4,795.0
Square René Le Gall,"Square Réné Le Gall, 75013 Paris, France",Paris,FR,parks,48.832287,2.349542,4.3,591.0
Square d'Estienne d'Orves,"1 Pl. d'Estienne d'Orves, 75009 Paris, France",Paris,FR,parks,48.876601,2.331723,4.1,916.0
Archipel des Berges de Seine Niki de Saint-Phalle,"Quai d'Orsay, 75007 Paris, France",Paris,FR,parks,48.863081,2.304671,4.5,211.0
Tuileries Garden,"75001 Paris, France",Paris,FR,gardens,48.863492,2.327494,4.6,109744.0
Jardin du Luxembourg,"75006 Paris, France",Paris,FR,gardens,48.846614,2.336331,4.7,113659.0
Jardin des Plantes,"75005 Paris, France",Paris,FR,gardens,48.843907,2.359658,4.6,48366.0
Jardin du Palais Royal,"8 Rue de Montpensier, 75001 Paris, France",Paris,FR,gardens,48.864972,2.337806,4.7,7964.0
Parc Monceau,"35 Bd de Courcelles, 75008 Paris, France",Paris,FR,gardens,48.879684,2.308955,4.6,21122.0
Jardins du Trocadéro,"Pl. du Trocadéro et du 11 Novembre, 75016 Paris, France",Paris,FR,gardens,48.861688,2.28928,4.6,140113.0
Jardin des Champs-Élysées,"10 Av. des Champs-Élysées, 75008 Paris, France",Paris,FR,gardens,48.867248,2.31794,4.5,2300.0
Jardin des Serres d’auteuil,"3 Av. de la Prte d'Auteuil, 75016 Paris, France",Paris,FR,gardens,48.846308,2.252186,4.6,3493.0
Jardin des Plantes Greenhouses,"All. Becquerel, 75005 Paris, France",Paris,FR,gardens,48.843641,2.359441,4.4,889.0
Parc Floral de Paris,"Rte de la Pyramide, 75012 Paris, France",Paris,FR,gardens,48.837702,2.444298,4.5,15267.0
Alpine Garden,"57 Rue Cuvier, 75005 Paris, France",Paris,FR,gardens,48.84395,2.358571,4.8,188.0
Jardin des Grands-Explorateurs,"27M Av. de l'Observatoire, 75006 Paris, France",Paris,FR,gardens,48.841837,2.336885,4.5,1107.0
Parc Bagatelle - la Roseraie,"42 Rte de Sèvres À Neuilly, 75016 Paris, France",Paris,FR,gardens,48.87027,2.245969,4.6,4528.0
Jardin du Carrousel,"6 Av. du Général Lemonnier, 75001 Paris, France",Paris,FR,gardens,48.861997,2.33207,4.7,332.0
Botanical Garden,"Quai Saint-Bernard, 75005 Paris, France",Paris,FR,gardens,48.84408,2.363802,4.6,108.0
Port de l'Arsenal Garden,"53 Bd de la Bastille, 75012 Paris, France",Paris,FR,gardens,48.84973,2.367874,4.4,2409.0
Jardin Catherine-Labouré,"29 Rue de Babylone, 75007 Paris, France",Paris,FR,gardens,48.851055,2.320992,4.6,1251.0
Rosiers Joseph Migneret Garden,"10 Rue des Rosiers, 75004 Paris, France",Paris,FR,gardens,48.8573,2.360222,4.5,859.0
Jardins des Archives Nationales,"60 Rue des Francs Bourgeois, 75003 Paris, France",Paris,FR,gardens,48.85997,2.357296,4.6,1048.0
Parc des Buttes-Chaumont,"75019 Paris, France",Paris,FR,gardens,48.88095,2.382761,4.6,25914.0
Jardin de la Tour Eiffel,"75007 Paris, France",Paris,FR,gardens,48.857445,2.29577,4.5,1418.0
La Villette,"211 Av. Jean Jaurès, 75019 Paris, France",Paris,FR,gardens,48.893849,2.39026,4.4,66602.0
Jardin d'Acclimatation,"Bois de Boulogne, Rte de la Prte Dauphine à la Prte des Sablons, 75116 Paris, France",Paris,FR,gardens,48.877781,2.269764,4.3,18085.0
Jardin de Kyiv au Peuple Ukrainien,"1 Cr la Reine, 75008 Paris, France",Paris,FR,gardens,48.865458,2.31525,4.6,339.0
Bois de Boulogne,"75016 Paris, France",Paris,FR,gardens,48.861984,2.252314,4.3,28005.0
Tino Rossi Garden,"2 Quai Saint-Bernard, 75005 Paris, France",Paris,FR,gardens,48.847064,2.360858,4.5,1756.0
Tropical Rainforest Greenhouse,"75005 Paris, France",Paris,FR,gardens,48.843278,2.35779,4.4,375.0
Eugénie-Malika Djendi Garden,"29 Rue de la Montagne de la Fage, 75015 Paris, France",Paris,FR,gardens,48.838126,2.277017,4.5,126.0
Jardin de roches et de pivoines,"Pl. Valhubert, 75000 Paris, France",Paris,FR,gardens,48.844574,2.36367,4.5,143.0
Jardin écologique,"57 Rue Cuvier, 75005 Paris, France",Paris,FR,gardens,48.844243,2.361763,4.8,44.0
Nelson Mandela Garden,"32 Rue Berger, 75001 Paris, France",Paris,FR,gardens,48.862425,2.34457,4.2,2039.0
Coulée Verte René-Dumont,"1 Coulée Verte René-Dumont, 75012 Paris, France",Paris,FR,gardens,48.849455,2.371486,4.5,5854.0
Jardin du Ranelagh,"1 Av. Prudhon, 75016 Paris, France",Paris,FR,gardens,48.858875,2.268776,4.4,2483.0
Luxembourg Palace,"15 Rue de Vaugirard, 75006 Paris, France",Paris,FR,gardens,48.849185,2.337344,4.7,3620.0
Les Jardins du Ruisseau,"110bis Rue du Ruisseau, 75018 Paris, France",Paris,FR,gardens,48.897438,2.34265,4.5,306.0
agronomie tropicale - René Dumont Garden,"45 Av. de la Belle Gabrielle, 75012 Paris, France",Paris,FR,gardens,48.834671,2.468384,4.3,1372.0
Jardin de Reuilly - Paul Pernin,"15 Rue Albinoni, 75012 Paris, France",Paris,FR,gardens,48.842209,2.387698,4.4,2697.0
Jardin Anne Frank,"14 Imp. Berthaud, 75003 Paris, France",Paris,FR,gardens,48.861619,2.354984,4.4,1105.0
Jardin Atlantique,"1 Pl. des Cinq Martyrs du Lycée Buffon, 75015 Paris, France",Paris,FR,gardens,48.839801,2.318854,4.0,1383.0
Parc André Citroën,"2 Rue Cauchy, 75015 Paris, France",Paris,FR,gardens,48.841083,2.274655,4.4,9699.0
Square du Vert-Galant,"15 Pl. du Pont Neuf, 75001 Paris, France",Paris,FR,gardens,48.857487,2.340168,4.5,1375.0
Gardens of the Observatory of Paris,"98 Bd Arago, 75014 Paris, France",Paris,FR,gardens,48.83515,2.336576,3.9,334.0
Pierre-Emmanuel naturel Garden,"120 Rue de la Réunion, 75020 Paris, France",Paris,FR,gardens,48.858544,2.398977,4.3,364.0
Villemin - Mahsa Jîna Amini Garden,"14 Rue des Récollets, 75010 Paris, France",Paris,FR,gardens,48.875112,2.361841,4.2,3669.0
Archipel des Berges de Seine Niki de Saint-Phalle,"Quai d'Orsay, 75007 Paris, France",Paris,FR,gardens,48.863081,2.304671,4.5,211.0
Jardin du Potager,"29 Rue de Babylone, 75007 Paris, France",Paris,FR,gardens,48.850624,2.3214,4.5,23.0
Garden of the Hôtel Salomon de Rothschild,"12 Av. de Friedland, 75008 Paris, France",Paris,FR,gardens,48.874992,2.302733,4.4,361.0
Serres du Jardin du Luxembourg,"64 Bd Saint-Michel, 75006 Paris, France",Paris,FR,gardens,48.845033,2.338151,4.3,70.0
Parc de Bercy,"128 Quai de Bercy, 75012 Paris, France",Paris,FR,gardens,48.836316,2.381295,4.0,33583.0
Pré-Catelan Garden,"Chem. de la Croix Catelan, 75016 Paris, France",Paris,FR,gardens,48.866304,2.254834,4.6,228.0
Intendant Garden,"6 Bd des Invalides, 75007 Paris, France",Paris,FR,gardens,48.854432,2.313593,4.9,14.0
Belleville Park,"47 Rue des Couronnes, 75020 Paris, France",Paris,FR,gardens,48.871068,2.384705,4.2,5786.0
Labyrinthe du Jardin des Plantes,"40 Rue Geoffroy-Saint-Hilaire, 75005 Paris, France",Paris,FR,gardens,48.843128,2.355959,4.3,305.0
Cour et Jardin de l'Hôtel de Sully,"5 Pl. des Vosges, 75004 Paris, France",Paris,FR,gardens,48.855006,2.364078,4.6,510.0
Square Jean XXIII,"4 Parvis Notre-Dame - Pl. Jean-Paul II, 75004 Paris, France",Paris,FR,gardens,48.852408,2.350872,4.5,15584.0
Parc Georges-Brassens,"2 Pl. Jacques Marette, 75015 Paris, France",Paris,FR,gardens,48.831521,2.299789,4.4,6356.0
Jardin de l'Hôtel de Sens,"7 Rue des Nonnains d'Hyères, 75004 Paris, France",Paris,FR,gardens,48.853639,2.3585,5.0,10.0
Medieval Garden of the Cluny Museum,"6 Pl. Paul Painlevé, 75005 Paris, France",Paris,FR,gardens,48.850769,2.344389,4.2,127.0
Bambous Garden,"75019 Paris, France",Paris,FR,gardens,48.892522,2.391959,4.4,34.0
Square Boucicaut,"1 Rue de Babylone, 75007 Paris, France",Paris,FR,gardens,48.851415,2.325626,4.2,458.0
Fort De Vanves,"27 Bd de Stalingrad, 92240 Malakoff, France",Paris,FR,fortresses,48.812254,2.290076,4.1,209.0
Fort de Bicêtre,"21 Av. Charles Gide, 94270 Le Kremlin-Bicêtre, France",Paris,FR,fortresses,48.805335,2.354519,4.1,33.0
Fort de Montrouge,"94110 Arcueil, France",Paris,FR,fortresses,48.80817,2.321519,4.5,40.0
Fort de Nogent,"Fort de Nogent, Bd du 25 Août 1944, 94120 Fontenay-sous-Bois, France",Paris,FR,fortresses,48.844914,2.482444,4.8,92.0
Fort de Villiers,"Unnamed Road, 93160, Noisy-le-Grand, France",Paris,FR,fortresses,48.833573,2.555132,4.5,30.0
Fort de Cormeilles-en-Parisis,"1 Rte Stratégique, 95240 Cormeilles-en-Parisis, France",Paris,FR,fortresses,48.984048,2.19579,4.6,366.0
Fort Mont-Valérien,"1 Av. du Colonel Hubert Delestree, 92150 Suresnes, France",Paris,FR,fortresses,48.873894,2.216607,4.7,162.0
Fort d'Ivry,"16 Rue Jean-Baptiste Renoult, 94200 Ivry-sur-Seine, France",Paris,FR,fortresses,48.803606,2.388999,4.6,24.0
Fort Romainville,"1 Av. de la Résistance, 93260 Les Lilas, France",Paris,FR,fortresses,48.885219,2.422966,4.4,47.0
Fort de l'Est,"2, 6 Rue du Fort de l'Est 4, 93200 Saint-Denis, France",Paris,FR,fortresses,48.930716,2.372304,4.0,126.0
Fort du Trou-d'Enfer,"Unnamed Road, 78160, 78160 Marly-le-Roi, France",Paris,FR,fortresses,48.848825,2.08704,4.1,49.0
Redoute de Gravelle,"48 Av. de l'École de Joinville, 75012 Paris, France",Paris,FR,fortresses,48.81969,2.454277,5.0,2.0
Place de la Bastille,"Pl. de la Bastille, 75004 Paris, France",Paris,FR,fortresses,48.853183,2.369144,4.3,23739.0
Fort de Montmorency,"5 Rue du Général Joinville, 95160 Montmorency, France",Paris,FR,fortresses,49.000137,2.324791,4.3,82.0
Château de Vincennes,"Av. de Paris, 94300 Vincennes, France",Paris,FR,fortresses,48.84433,2.436331,4.5,16407.0
Fort de Sucy,"All. du Général Seré-de-Rivière, 94370 Sucy-en-Brie, France",Paris,FR,fortresses,48.76881,2.53095,4.4,122.0
Domaine National du Palais-Royal,"75001 Paris, France",Paris,FR,fortresses,48.863757,2.337126,4.6,20356.0
Fort de Villeneuve-Saint-Georges,"1876 Chem. du Fort, 94190 Villeneuve-Saint-Georges, France",Paris,FR,fortresses,48.726861,2.455864,4.6,42.0
Fort de Chelles,"Rte du Fort, 77500 Chelles, France",Paris,FR,fortresses,48.885187,2.5947,4.1,173.0
Château de Fontainebleau,"77300 Fontainebleau, France",Paris,FR,fortresses,48.402102,2.699484,4.6,26905.0
Fort de Champigny,"140 Rue Aristide Briand, 94430 Chennevières-sur-Marne, France",Paris,FR,fortresses,48.803677,2.53323,4.4,67.0
Keep of Vincennes,"Av. de Paris, 94300 Vincennes, France",Paris,FR,fortresses,48.842822,2.434218,4.6,764.0
Palace of Versailles,"Place d'Armes, 78000 Versailles, France",Paris,FR,fortresses,48.804865,2.120355,4.6,150487.0
Fort de Saint-Cyr,"12-14 Rue du Fort de Saint-Cyr, 78390 Montigny-le-Bretonneux, France",Paris,FR,fortresses,48.792839,2.031001,4.3,6.0
Château de Champs-sur-Marne,"31 Rue de Paris, 77420 Champs-sur-Marne, France",Paris,FR,fortresses,48.853217,2.604142,4.6,2703.0
Maisons Médiévales,"11 Rue François Miron, 75004 Paris, France",Paris,FR,fortresses,48.855845,2.356801,4.6,46.0
Fort d'Écouen,"95440 Écouen, France",Paris,FR,fortresses,49.015053,2.378761,3.2,6.0
Château de Blandy,"1 Pl. des Tours, 77115 Blandy, France",Paris,FR,fortresses,48.567264,2.780964,4.5,3361.0
Remains of the Bastille,"7 Bd Henri IV, 75004 Paris, France",Paris,FR,fortresses,48.851096,2.361728,3.7,79.0
Eiffel Tower,"Av. Gustave Eiffel, 75007 Paris, France",Paris,FR,towers,48.85837,2.294481,4.7,428607.0
Jardin de la Tour Eiffel,"75007 Paris, France",Paris,FR,towers,48.857445,2.29577,4.5,1418.0
Montparnasse Tower,"33 Av. du Maine, 75015 Paris, France",Paris,FR,towers,48.842138,2.321951,4.5,14670.0
Tower Flower,"23 Rue Albert Roussel, 75017 Paris, France",Paris,FR,towers,48.89237,2.304748,3.9,64.0
Square of Saint-Jacques Tower,"39 Rue de Rivoli, 75004 Paris, France",Paris,FR,towers,48.857864,2.348815,4.4,4432.0
Beaugrenelle Tower (H15 Tower),"26 Rue Linois, 75015 Paris, France",Paris,FR,towers,48.848029,2.283334,3.0,1.0
Tour Jean-sans-Peur,"20 Rue Étienne Marcel, 75002 Paris, France",Paris,FR,towers,48.864303,2.348061,4.5,587.0
Tour Saint-Jacques,"Square de la Tour Saint-Jacques, 75004 Paris, France",Paris,FR,towers,48.858068,2.348907,4.5,4643.0
Champ de Mars,"75007 Paris, France",Paris,FR,towers,48.855805,2.298377,4.6,206665.0
Paris Montparnasse – Top of the city,"33 Av. du Maine, 75015 Paris, France",Paris,FR,towers,48.842138,2.321968,4.5,23621.0
WALLS PARIS,"29 Rue Vaneau, 75007 Paris, France",Paris,FR,walls,48.852681,2.319212,5.0,11.0
Wall of Philippe II Augustus,"1 Rue Clovis, 75005 Paris, France",Paris,FR,walls,48.845927,2.350056,4.3,46.0
Old Wall of Paris,"Rue des Jardins Saint-Paul, 75004 Paris, France",Paris,FR,walls,48.853596,2.360345,4.5,6.0
Gate Club,"2 Pl de la Pte Maillot, 75017 Paris, France",Paris,FR,gates,48.879287,2.282754,3.6,328.0
Saint-Lazare,"13 Rue d'Amsterdam, 75008 Paris, France",Paris,FR,gates,48.877243,2.325311,3.7,2186.0
Rodin Museum - The Gate of Hell,"77 Rue de Varenne, 75007 Paris, France",Paris,FR,gates,48.855462,2.31671,4.7,191.0
Les Enfants Gâtés,"6 Bis Rue des Récollets, 75010 Paris, France",Paris,FR,gates,48.874493,2.361982,4.2,23.0
Musée Rodin,"77 Rue de Varenne, 75007 Paris, France",Paris,FR,gates,48.855307,2.315835,4.7,18121.0
Arc de Triomphe,"Pl. Charles de Gaulle, 75008 Paris, France",Paris,FR,gates,48.873792,2.295028,4.7,260986.0
India Gate,"30 Bd de l'Hôpital, 75005 Paris, France",Paris,FR,gates,48.840953,2.36219,3.7,668.0
Les Enfants Gatés,"7 Rue Cardinet, 75017 Paris, France",Paris,FR,gates,48.881519,2.301701,3.7,179.0
Eiffel Tower,"Av. Gustave Eiffel, 75007 Paris, France",Paris,FR,gates,48.85837,2.294481,4.7,428607.0
The Gate VR,"93 Rue d'Amsterdam, 75008 Paris, France",Paris,FR,gates,48.88263,2.326877,4.9,261.0
Champ de Mars Eiffel Tower,"Quai Jacques Chirac, 75015 Paris, France",Paris,FR,gates,48.8551,2.28909,4.4,358.0
Grande Arche de la Défense,"1 Parv. de la Défense, 92800 Puteaux, France",Paris,FR,gates,48.892598,2.236112,4.4,9360.0
Porte de Paris,"Pl. Simon Vollant, 59800 Lille, France",Paris,FR,gates,50.629605,3.068812,4.4,2772.0
Place de la Bastille,"Pl. de la Bastille, 75004 Paris, France",Paris,FR,gates,48.853183,2.369144,4.3,23739.0
Technique soude,"10 Rue de Penthièvre, 75008 Paris, France",Paris,FR,gates,48.873035,2.316519,4.6,338.0
K&L Gates LLP,"116 Av. des Champs-Élysées, 75008 Paris, France",Paris,FR,gates,48.87239,2.300784,2.7,6.0
Art Gates,"3 Imp. Saint-Claude, 75003 Paris, France",Paris,FR,gates,48.860385,2.365635,0.0,0.0
Gate to Paris Relocation,"55 Rue Jouffroy d'Abbans, 75017 Paris, France",Paris,FR,gates,48.884533,2.306522,4.9,16.0
The Thinker,"77 Rue de Varenne, 75007 Paris, France",Paris,FR,gates,48.855616,2.315519,4.3,456.0
Gare du Nord,"112 Rue de Maubeuge, 75010 Paris, France",Paris,FR,gates,48.88051,2.35503,3.7,27.0
GATE Avocats,"11 Rue de Téhéran, 75008 Paris, France",Paris,FR,gates,48.876302,2.312418,5.0,3.0
Galeries Lafayette Haussmann,"40 Bd Haussmann, 75009 Paris, France",Paris,FR,gates,48.873622,2.33211,4.5,83086.0
Tuileries Garden,"75001 Paris, France",Paris,FR,gates,48.863492,2.327494,4.6,109744.0
The Gate Collection,"54 Rue de Courcelles, 75008 Paris, France",Paris,FR,gates,48.876971,2.30745,2.0,4.0
Portail sculpté - cité Bauer,"19 Cité Bauer, 75014 Paris, France",Paris,FR,gates,48.832035,2.319084,5.0,2.0
Tafanel Socodis,"105 Rue d'Aubervilliers, 75018 Paris, France",Paris,FR,gates,48.891378,2.368738,3.5,116.0
Enceinte de Philippe Auguste,"21 Rue des Jardins Saint-Paul, 75004 Paris, France",Paris,FR,gates,48.853568,2.360334,4.5,24.0
Porte de la Gare de Paris,"5-3 Quai Panhard et Levassor, 75013 Paris, France",Paris,FR,gates,48.827413,2.385688,0.0,0.0
Hôtel Les Deux Gares,"2 Rue des Deux Gares, 75010 Paris, France",Paris,FR,gates,48.878467,2.358257,4.3,201.0
Porte Saint-Martin,"Bd Saint-Martin, 75003 Paris, France",Paris,FR,gates,48.869142,2.355667,4.4,82.0
"GATE, la plateforme d'accompagnement des opérateurs fluviaux","8 rue Saint-Florentin 75001 Paris-Florentin, 75001 Paris, France",Paris,FR,gates,48.867472,2.324467,5.0,1.0
La Gaîté Lyrique,"3 bis Rue Papin, 75003 Paris, France",Paris,FR,gates,48.866697,2.353563,4.5,2558.0
Gare du Nord,"18 Rue de Dunkerque, 75010 Paris, France",Paris,FR,railway stations,48.88051,2.35503,3.4,5722.0
Gare de l'Est,"Rue du 8 Mai 1945, 75010 Paris, France",Paris,FR,railway stations,48.876815,2.359198,4.0,6825.0
Gare Montparnasse,"17 Bd de Vaugirard, 75015 Paris, France",Paris,FR,railway stations,48.84087,2.32003,3.8,3323.0
Gare de Lyon,"Pl. Louis Armand, 75012 Paris, France",Paris,FR,railway stations,48.844304,2.374377,3.8,6321.0
Gare d'Austerlitz,"85 Quai d'Austerlitz, 75013 Paris, France",Paris,FR,railway stations,48.842346,2.366284,3.5,2367.0
Champ de Mars Eiffel Tower,"Quai Jacques Chirac, 75015 Paris, France",Paris,FR,railway stations,48.8551,2.28909,4.4,358.0
Paris Bercy Bourgogne - Pays d'Auvergne,"48 bis Bd de Bercy, 75012 Paris, France",Paris,FR,railway stations,48.83922,2.38279,3.5,930.0
Auber,"75009 Paris, France",Paris,FR,railway stations,48.872402,2.329823,3.3,348.0
Saint-Lazare,"13 Rue d'Amsterdam, 75008 Paris, France",Paris,FR,railway stations,48.877243,2.325311,3.7,2186.0
Saint-Michel Notre-Dame,"Quai Saint-Michel, 75005 Paris, France",Paris,FR,railway stations,48.853745,2.344682,4.4,1093.0
Railway station,"37 Rue de Maubeuge, 75009 Paris, France",Paris,FR,railway stations,48.878758,2.345992,4.4,5.0
Port-Royal,"75005 Paris, France",Paris,FR,railway stations,48.839818,2.337,4.0,143.0
Neuilly Porte Maillot,"82 Av. de la Grande Armée, 75017 Paris, France",Paris,FR,railway stations,48.877894,2.284398,3.5,281.0
Luxembourg,"75006 Paris, France",Paris,FR,railway stations,48.84677,2.340308,4.4,155.0
Haussmann Saint-Lazare,"75012 Paris, France",Paris,FR,railway stations,48.87598,2.32905,3.7,163.0
Gare de l'Est,"Place du 11 novembre 1918, 75010 Paris, France",Paris,FR,railway stations,48.876811,2.359183,4.2,89.0
Europe,"75008 Paris, France",Paris,FR,railway stations,48.878885,2.322745,4.0,64.0
Boulainvilliers,"52 Rue des Vignes, 75016 Paris, France",Paris,FR,railway stations,48.856568,2.275202,4.4,74.0
The Defense,"92800 Puteaux, France",Paris,FR,railway stations,48.891767,2.238726,4.1,1054.0
Javel train station,"75015 Paris, France",Paris,FR,railway stations,48.846299,2.276878,3.9,145.0
Hall 1 of the Gare de Lyon,"Rue de Lyon, 75012 Paris, France",Paris,FR,railway stations,48.844738,2.373697,3.8,1664.0
Gare de Bercy,"75012 Paris, France",Paris,FR,railway stations,48.839695,2.38112,1.6,90.0
Porte de Clichy,"75017 Paris, France",Paris,FR,railway stations,48.89466,2.314104,3.4,175.0
Magenta,"75010 Paris, France",Paris,FR,railway stations,48.88071,2.3574,3.7,155.0
Invalides,"75007 Paris, France",Paris,FR,railway stations,48.862018,2.31464,4.2,254.0
Nation,"75011 Paris, France",Paris,FR,railway stations,48.848713,2.397038,4.1,999.0
Avenue du Pdt Kennedy,"6 Rue du Ranelagh, 75016 Paris, France",Paris,FR,railway stations,48.85337,2.279993,4.3,42.0
Avenue Foch,"91 Bd Flandrin, 75016 Paris, France",Paris,FR,railway stations,48.870879,2.275547,3.8,38.0
Paris Saint-Lazare,"109 Rue Saint-Lazare, 75009 Paris, France",Paris,FR,railway stations,48.876425,2.325296,4.0,4128.0
Gare Montparnasse Hall 2,"5 Pl. des Cinq Martyrs du Lycée Buffon, 75015 Paris, France",Paris,FR,railway stations,48.839049,2.317979,3.9,1565.0
Gentilly train Station,"94250 Gentilly, France",Paris,FR,railway stations,48.81509,2.34097,3.8,58.0
Asnières-sur-Seine,"Rue de la Station, 92600 Asnières-sur-Seine, France",Paris,FR,railway stations,48.906033,2.282267,3.6,130.0
Avenue Henri-Martin,"Av. Henri Martin, 75016 Paris, France",Paris,FR,railway stations,48.864418,2.272256,3.7,32.0
Champs-Élysées–Clemenceau,"75008 Paris, France",Paris,FR,railway stations,48.867508,2.31332,4.5,282.0
Metro station gare de lyon,"27 Bd Diderot, 75012 Paris, France",Paris,FR,railway stations,48.846073,2.37541,3.6,16.0
Vincennes,"94300 Vincennes, France",Paris,FR,railway stations,48.847358,2.43336,3.8,166.0
Pereire Levallois,"75017 Paris, France",Paris,FR,railway stations,48.885392,2.298007,3.4,68.0
Victor Hugo,"75016 Paris, France",Paris,FR,railway stations,48.8698,2.285434,4.1,95.0
Saint-Lazare,"75008 Paris, France",Paris,FR,railway stations,48.876092,2.325597,3.8,397.0
Pont de l'Alma,"Pl. de la Résistance, 75007 Paris, France",Paris,FR,railway stations,48.862538,2.301081,3.7,71.0
Saint-Cyr,"78210 Saint-Cyr-l'École, France",Paris,FR,railway stations,48.798974,2.07326,2.9,130.0
Garibaldi,"93400 Saint-Ouen-sur-Seine, France",Paris,FR,railway stations,48.906026,2.331715,3.5,86.0
Nanterre-Préfecture train station,"92000 Nanterre, France",Paris,FR,railway stations,48.895778,2.223054,3.5,187.0
Hôtel de Ville,"75004 Paris, France",Paris,FR,railway stations,48.857251,2.352205,4.3,258.0
Gare Montparnasse,"17 Bd de Vaugirard, 75015 Paris, France",Paris,FR,railway stations,48.841806,2.321327,2.5,467.0
Laplace train station,"94110 Arcueil, France",Paris,FR,railway stations,48.80773,2.33319,3.5,83.0
Joinville-le-Pont,"Av. Jean Jaurès, 94340 Joinville-le-Pont, France",Paris,FR,railway stations,48.820194,2.463941,4.1,211.0
Eurostar,"Gare du Nord, 18 Rue de Dunkerque, 75010 Paris, France",Paris,FR,railway stations,48.880428,2.355014,4.2,7500.0
Bibliothèque François-Mitterrand,"Rue du Chevaleret, 75013 Paris, France",Paris,FR,railway stations,48.82978,2.37673,4.2,341.0
Le Parc de Saint-Maur,"94100 Saint-Maur-des-Fossés, France",Paris,FR,railway stations,48.805089,2.485589,3.9,70.0
Jaurès,"75019 Paris, France",Paris,FR,railway stations,48.882638,2.370466,3.5,150.0
Saint-Ouen,"93400 Saint-Ouen-sur-Seine, France",Paris,FR,railway stations,48.90543,2.32218,3.5,101.0
Bois-Colombes,"1 Pl. Gabriel Péri, 92270 Bois-Colombes, France",Paris,FR,railway stations,48.913619,2.272301,3.5,94.0
Val Fleury train station,"92190 Meudon, France",Paris,FR,railway stations,48.80787,2.24114,3.7,98.0
Denfert-Rochereau,"75014 Paris, France",Paris,FR,railway stations,48.833668,2.33187,3.6,351.0
Charles de Gaulle Airport 2 TGV,"95716 Roissy-en-France, France",Paris,FR,railway stations,49.00457,2.570903,3.3,1175.0
Transilien Paris-Nord,"75010 Paris, France",Paris,FR,railway stations,48.880441,2.354937,4.0,35.0
Val d'Europe,"77700 Serris, France",Paris,FR,railway stations,48.855706,2.773873,3.6,270.0
Bastille,"75012 Paris, France",Paris,FR,railway stations,48.852223,2.369697,3.4,5.0
Gare de l'Est,"75010 Paris, France",Paris,FR,railway stations,48.876636,2.359114,3.2,49.0
Eiffel Tower,"Av. Gustave Eiffel, 75007 Paris, France",Paris,FR,watchtowers,48.85837,2.294481,4.7,428607.0
Montparnasse Tower,"33 Av. du Maine, 75015 Paris, France",Paris,FR,watchtowers,48.842138,2.321951,4.5,14670.0
Tour de l'Horloge du Palais de la Cité,"Bd du Palais, 75001 Paris, France",Paris,FR,watchtowers,48.856247,2.346226,4.6,308.0
Tour Jean-sans-Peur,"20 Rue Étienne Marcel, 75002 Paris, France",Paris,FR,watchtowers,48.864303,2.348061,4.5,587.0
Champ de Mars,"75007 Paris, France",Paris,FR,watchtowers,48.855805,2.298377,4.6,206665.0
Paris Montparnasse – Top of the city,"33 Av. du Maine, 75015 Paris, France",Paris,FR,watchtowers,48.842138,2.321968,4.5,23621.0
Arc de Triomphe,"Pl. Charles de Gaulle, 75008 Paris, France",Paris,FR,watchtowers,48.873792,2.295028,4.7,260986.0
Tour Saint-Jacques,"Square de la Tour Saint-Jacques, 75004 Paris, France",Paris,FR,watchtowers,48.858068,2.348907,4.5,4643.0
Cimetière du Père-Lachaise,"75020 Paris, France",Paris,FR,mausoleums,48.861472,2.393472,4.6,3988.0
Tomb of Jim Morrison,"Cimetière du Père Lachaise, 16 rue du Repos, 6ème division, Chem. Lesseps, 75020 Paris, France",Paris,FR,mausoleums,48.859284,2.393769,4.3,1548.0
Montparnasse Cemetery,"3 Bd Edgar Quinet, 75014 Paris, France",Paris,FR,mausoleums,48.838214,2.326147,4.5,841.0
Passy Cemetery,"2 Rue du Commandant Schloesing, 75016 Paris, France",Paris,FR,mausoleums,48.8625,2.28528,4.5,98.0
Cimetière de Montmartre,"20 Av. Rachel, 75018 Paris, France",Paris,FR,mausoleums,48.887908,2.329884,4.5,812.0
Catacombs of Paris,"1 Av. du Colonel Henri Rol-Tanguy, 75014 Paris, France",Paris,FR,mausoleums,48.833912,2.332393,4.1,9550.0
Héloïse and Abélard's tomb,"Cimetière du Père Lachaise, 16 Rue du Repos, 7ème division Chemin D'Héloise Et Abélard, 75020 Paris, France",Paris,FR,mausoleums,48.859192,2.391916,4.7,51.0
Tomb of Dalida,"20 Av. Rachel, 75018 Paris, France",Paris,FR,mausoleums,48.886253,2.332432,4.5,1318.0
Picpus Cemetery,"35 Rue de Picpus, 75012 Paris, France",Paris,FR,mausoleums,48.844044,2.400183,4.5,54.0
Cimetière du Calvaire,"2 Rue du Mont-Cenis, 75018 Paris, France",Paris,FR,mausoleums,48.886843,2.341901,4.2,28.0
Cimetière de Charonne,"119 Rue de Bagnolet, 75020 Paris, France",Paris,FR,mausoleums,48.860754,2.403594,4.2,13.0
POWER METAL - DEPANNAGE & INSTALLATION RIDEAU METALLIQUE A PARIS,"75 Rue de Lourmel, 75015 Paris, France",Paris,FR,installations,48.845499,2.28806,5.0,23.0
BT QUALIT INSTALLATION VMC PARIS et nettoyage VMC,"176 Rue de Charenton, 75012 Paris, France",Paris,FR,installations,48.844051,2.384216,5.0,37.0
Plombier Paris 15 - ATID MULTISERVICES - Dépannage Installation,"77 Rue des Morillons, 75015 Paris, France",Paris,FR,installations,48.832129,2.303435,4.7,13.0
Pariserenov - Entreprise de Rénovation intérieure à Paris,"7 Rue Grégoire de Tours bât 1, 75006 Paris, France",Paris,FR,installations,48.853349,2.337992,4.7,45.0
Électriciens Matt & Val élec Paris,"3bis Av. de Bouvines, 75011 Paris, France",Paris,FR,installations,48.850016,2.395964,5.0,44.0
Art et Fenêtres - Paris - SB Ouvertures,"135 Bd de Sébastopol, 75002 Paris, France",Paris,FR,installations,48.868598,2.353511,4.8,208.0
National Froid Entreprise Climatisation Paris ile de France Société,"221 Rue La Fayette, 75010 Paris, France",Paris,FR,installations,48.881628,2.365306,4.4,284.0
Ets Robert Plombier Paris 17,"120 Rue Nollet, 75017 Paris, France",Paris,FR,installations,48.887383,2.317671,5.0,101.0
Côté Rangement | Placard Dressing Meuble & Bibliothèque sur mesure | Menuisier Fabrication Pose Installation Paris 16,"55 Rue de la Pompe, 75016 Paris, France",Paris,FR,installations,48.862562,2.275939,5.0,1.0
Tec-Installations,"11 Pl. Souham, 75013 Paris, France",Paris,FR,installations,48.828648,2.368325,4.9,14.0
Entreprise de rénovation Paris - Jarente Frères,"32 Bd de Sébastopol, 75004 Paris, France",Paris,FR,installations,48.861164,2.350039,4.8,73.0
La Maison du Haut-Parleur Paris,"138 Ave Parmentier, 75011 Paris, France",Paris,FR,installations,48.869173,2.371836,4.6,194.0
"Borneco - Vente, installation borne recharge électrique Paris","142 Av. Daumesnil, 75012 Paris, France",Paris,FR,installations,48.84064,2.390443,4.7,6.0
Palais de Tokyo,"13 Av. du Président Wilson, 75116 Paris, France",Paris,FR,installations,48.864587,2.296675,4.4,10719.0
Climatisation Paris 16 - Installation - Réparation - Entretien - EcoHomeAssistance,"63 Av. Marceau, 75116 Paris, France",Paris,FR,installations,48.870129,2.297551,4.6,68.0
Plombier Paris 9 - ATID MULTISERVICES - Dépannage Installation,"62 Rue Catherine de la Rochefoucauld, 75009 Paris, France",Paris,FR,installations,48.880662,2.335743,5.0,110.0
Dégraissage et Installation Hotte Professionnelle à Paris - MISTER HOTTE,"58 Rue de Monceau, 75008 Paris, France",Paris,FR,installations,48.878282,2.312212,5.0,6.0
La Fabrique Paris - Rénovations,"12 Rue Saint-Sauveur, 75002 Paris, France",Paris,FR,installations,48.866087,2.348919,5.0,5.0
Climeden Climatisation Paris,"1 Av. Taillade, 75020 Paris, France",Paris,FR,installations,48.874902,2.393853,4.7,88.0
UP CHARGES DOWN Cie. depannage monte charge Paris réparation installation monte-charge monte-fûts monte-plats chr,"29 Rue Pouchet, 75017 Paris, France",Paris,FR,installations,48.893069,2.319494,5.0,15.0
Arti-Pro Serrurier Paris 3,"31 Rue Notre Dame de Nazareth 75003 60 Rue volta 75003, 31 Rue Notre Dame de Nazareth, 75003 Paris, France",Paris,FR,installations,48.867325,2.358688,4.9,309.0
TD RENOVATION PARIS | Rénovation appartement Paris | salle de bain | cuisine | maçonnerie,"40 Rue des Blancs Manteaux, 75004 Paris, France",Paris,FR,installations,48.859868,2.355161,4.8,189.0
Vitrier Paris pas cher artisan,"11 Rue Rodier, 75009 Paris, France",Paris,FR,installations,48.878082,2.342471,4.9,90.0
Rénovation Intérieure Paris - Group SAB,"37 Rue des Mathurins, 75008 Paris, France",Paris,FR,installations,48.872947,2.324626,5.0,10.0
Serrurier Pragmatic Multi services Paris 11 (Dépannage 7/7 - Blindages et Portes Blindées - Fenêtres - Volets - Vitrerie),"9 Rue du Grand Prieuré, 75011 Paris, France",Paris,FR,installations,48.865055,2.368791,4.9,619.0
FAIN Ascenseurs à Paris - Installation et maintenance,"Parc du Canal de l'Ourcq, 74 Rue de Paris Bâtiment C, 93130 Noisy-le-Sec, France",Paris,FR,installations,48.900119,2.453443,3.2,29.0
ARCHIDEE,"15 Rue des Halles, 75001 Paris, France",Paris,FR,installations,48.860183,2.346115,3.4,5.0
GBM rénovation,"54 Rue Greneta, 75002 Paris, France",Paris,FR,installations,48.865772,2.348088,5.0,5.0
Climatisation Ventilation Chauffage Clim Réversible installation Climatiseur Paris IDF Service GNF,"221 Rue La Fayette, 75010 Paris, France",Paris,FR,installations,48.881628,2.365306,4.4,20.0
Point Fort Fichet - Paris 5 - Home Garde,"12 Rue du Cardinal Lemoine, 75005 Paris, France",Paris,FR,installations,48.849011,2.353792,4.8,293.0
Etablissement Lefevre Paris : Plomberie Chauffage Serrurerie,"124 Bd Voltaire, 75011 Paris, France",Paris,FR,installations,48.85857,2.378489,4.5,135.0
Monsieur Peinture,"137 Rue d'Aboukir, 75002 Paris, France",Paris,FR,installations,48.869167,2.351359,4.7,257.0
"CEDIP : climatisation entretien depannage installation paris, climatiseur : mitsubishi dakin toshiba hitachi carrier lg","6 Rue Bleue, 75009 Paris, France",Paris,FR,installations,48.875948,2.347242,5.0,6.0
IPS Renov - Rénovation d'appartement à Paris,"81 Rue Réaumur, 75002 Paris, France",Paris,FR,installations,48.866906,2.348539,4.8,25.0
"Plomb'Art, Installation, Entretien, Dépannage de chaudière Paris","155 Rue du Faubourg Saint-Denis, 75010 Paris, France",Paris,FR,installations,48.878735,2.356575,4.8,37.0
Lapeyre,"76 Bd Richard-Lenoir, 75011 Paris, France",Paris,FR,installations,48.861183,2.373012,3.4,246.0
Costaud Renovation Paris,"18 Rue Taylor, 75010 Paris, France",Paris,FR,installations,48.869987,2.359509,5.0,31.0
Construction et Rénovation BTP - Paris - STB Rénovation,"36 Rue de Sambre-et-Meuse, 75010 Paris, France",Paris,FR,installations,48.874578,2.372542,3.6,15.0
Cuisinella Paris 02 Sébastopol,"69 Bd de Sébastopol, 75002 Paris, France",Paris,FR,installations,48.8637,2.35088,4.8,334.0
Artisans Bernard et Sylvestre Paris,"18 Rue Rochebrune, 75011 Paris, France",Paris,FR,installations,48.861186,2.379841,4.0,29.0
Fichet Point Fort EFP Services Etudes Fabrications Protections Services,"2 Rue Geoffroy l'Angevin, 75004 Paris, France",Paris,FR,installations,48.86056,2.354912,4.4,18.0
2AZ Travaux Paris,"23/25 Rue Jean-Jacques Rousseau, 75001 Paris, France",Paris,FR,installations,48.862919,2.340952,4.8,4.0
HBHS - Installation et dépannage rideaux métalliques et volets roulants à Paris - Île de France,"10 Rue Alexandre Dumas, 75011 Paris, France",Paris,FR,installations,48.852931,2.389864,4.8,234.0
CHEF DE CHANTIER.FR,"142 Rue de Rivoli, 75001 Paris, France",Paris,FR,installations,48.860572,2.34287,4.9,40.0
FORM Paris,"8 Rue Saint-Bon, 75004 Paris, France",Paris,FR,installations,48.858406,2.35076,5.0,20.0
REALCOM - Standard Téléphonique - Installation Pabx Alcatel Paris,"39 Rue Navier, 75017 Paris, France",Paris,FR,installations,48.89569,2.324778,0.0,0.0
Alain Père & Fils - Plombier - Dépannage Plomberie - Paris 1,"4 Rue Hérold, 75001 Paris, France",Paris,FR,installations,48.864618,2.341112,4.6,19.0
Lafayette Anticipations,"9 Rue du Plâtre, 75004 Paris, France",Paris,FR,installations,48.8592,2.354858,4.4,635.0
Veneta Cucine France,"53 Rue Réaumur, 75002 Paris, France",Paris,FR,installations,48.866264,2.351902,4.5,105.0
Escaliers L'Echelle Européenne Paris (75) - Fabrication et installation d'escaliers,"8 Av. Daumesnil, 75012 Paris, France",Paris,FR,installations,48.833839,2.410717,0.0,0.0
Bose professionnel Paris,"68 Ave Parmentier, 75011 Paris, France",Paris,FR,installations,48.863456,2.376515,4.5,13.0
EPS Coordination,"147 Rue Saint-Honoré, 75001 Paris, France",Paris,FR,installations,48.861805,2.33974,5.0,6.0
Outdoor Sculpture Museum,"11 Bis Quai Saint-Bernard, 75005 Paris, France",Paris,FR,installations,48.84757,2.360487,4.0,74.0
BT QUALIT Installation VMC et Entretien VMC,"47 Rue Orfila, 75020 Paris, France",Paris,FR,installations,48.866943,2.397582,4.5,32.0
"CEDIP : climatisation entretien depannage installation paris, climatiseur : mitsubishi dakin toshiba hitachi carrier lg ...","31 Rue du Départ, 75014 Paris, France",Paris,FR,installations,48.841434,2.322225,5.0,4.0
Entreprise Climatisation Installation Dépannage Entretien (ECIDE),"27 Av. de l'Opéra, 75001 Paris, France",Paris,FR,installations,48.866828,2.333631,0.0,0.0
Confort Clim Val-de-Marne Paris | Dépannage et installation climatisation et Pompe à chaleur RGE,"149 Rue du Maréchal Leclerc, 94410 Saint-Maurice, France",Paris,FR,installations,48.815402,2.461136,4.7,30.0
BTA RENOV,"15 Rue des Halles, 75001 Paris, France",Paris,FR,installations,48.860183,2.346115,5.0,6.0
Théodore And Co · Entreprise de Rénovation Intérieure Paris et Île-de-France,"19 Rue de Jouy, 75004 Paris, France",Paris,FR,installations,48.855352,2.357697,5.0,2.0
Fac les compagnons,"15 Rue des Halles, 75001 Paris, France",Paris,FR,installations,48.860183,2.346115,5.0,4.0
Statue of Joan of Arc Paris - Emmanuel Fremiet,"4 Pl. des Pyramides, 75001 Paris, France",Paris,FR,public sculpture,48.863888,2.332199,4.5,500.0
Statue of Liberty,"3 Rue Guynemer, 75006 Paris, France",Paris,FR,public sculpture,48.846401,2.33314,4.5,2490.0
Le Passe-Muraille,"Pl. Marcel Aymé, 75018 Paris, France",Paris,FR,public sculpture,48.887553,2.338042,4.4,1654.0
Statue of Louis XIV,"Pl. des Victoires, 75001 Paris, France",Paris,FR,public sculpture,48.865759,2.341196,4.5,596.0
Statue du Général Charles de Gaulle,"Pl. Clemenceau, 75008 Paris, France",Paris,FR,public sculpture,48.8675,2.313606,4.5,246.0
Statue of Marshal Gallieni,"Pl. Vauban, 75007 Paris, France",Paris,FR,public sculpture,48.853708,2.311778,4.1,125.0
The Centaur,"2 Pl. Michel Debré, 75006 Paris, France",Paris,FR,public sculpture,48.851942,2.329582,4.3,45.0
