name,kind,city,country,lat,lon,rate
The Science,"historic,monuments_and_memorials,urban_environment,cultural,interesting_places,sculptures,monuments",Paris,FR,48.856651,2.351868,2
Siege of Paris,"battlefields,historic,historical_places,interesting_places",Paris,FR,48.856602,2.35183,2
bataille de Lutèce,"battlefields,historic,historical_places,interesting_places",Paris,FR,48.856602,2.35183,2
Siege of Paris,"battlefields,historic,historical_places,interesting_places",Paris,FR,48.856602,2.35183,3
Siege of Paris,"battlefields,historic,historical_places,interesting_places",Paris,FR,48.856602,2.35183,2
Siege of Paris,"battlefields,historic,historical_places,interesting_places",Paris,FR,48.856602,2.35183,2
Battle of Montmartre,"battlefields,historic,historical_places,interesting_places",Paris,FR,48.856602,2.3518,2
The Art,"historic,monuments_and_memorials,urban_environment,cultural,interesting_places,sculptures,monuments",Paris,FR,48.856537,2.351805,2
Paris Town Hall,"architecture,historic_architecture,interesting_places,other_buildings_and_structures",Paris,FR,48.856426,2.352528,3
Paris,"religion,other_temples,interesting_places",Paris,FR,48.85704,2.352812,3
Place de Grève,"historic,monuments_and_memorials,burial_places,interesting_places,other_burial_places,monuments",Paris,FR,48.857208,2.35218,2
Hôtel de Ville,"historic,monuments_and_memorials,burial_places,interesting_places,other_burial_places,monuments",Paris,FR,48.857231,2.352095,2
Siege of Paris,"battlefields,historic,historical_places,interesting_places",Paris,FR,48.856945,2.351389,3
Siege of Paris,"battlefields,historic,historical_places,interesting_places",Paris,FR,48.856945,2.351389,3
Siege of Paris,"battlefields,historic,historical_places,interesting_places",Paris,FR,48.856945,2.351389,2
equestrian statue of Étienne Marcel,"historic,cultural,urban_environment,monuments_and_memorials,interesting_places,sculptures,monuments",Paris,FR,48.855835,2.352222,2
Church Saint-Jean-en-Grève,"religion,churches,interesting_places,other_churches",Paris,FR,48.856388,2.353333,3
Jardin des Combattants-de-la-Nueve,"urban_environment,gardens_and_parks,cultural,interesting_places",Paris,FR,48.855766,2.352107,3
Les feux de la Saint-Jean,"historic,monuments_and_memorials,burial_places,interesting_places,other_burial_places,monuments",Paris,FR,48.855816,2.351621,2
Étienne Marcel,"cultural,urban_environment,interesting_places,sculptures",Paris,FR,48.855675,2.35212,3
Pont d'Arcole,"bridges,architecture,interesting_places,stone_bridges",Paris,FR,48.855621,2.350669,3
Orme de Saint-Gervais,"historic,monuments_and_memorials,burial_places,interesting_places,other_burial_places,monuments",Paris,FR,48.855743,2.353993,2
"63 rue de la Verrerie, Paris","historic_architecture,architecture,interesting_places,other_buildings_and_structures",Paris,FR,48.858067,2.352511,2
"9 rue du Renard, Paris","historic_architecture,architecture,interesting_places,other_buildings_and_structures",Paris,FR,48.858101,2.351567,2
Hôtel de Ville,"historic,monuments_and_memorials,burial_places,interesting_places,other_burial_places,monuments",Paris,FR,48.856956,2.349721,2
"77 rue de la Verrerie, Paris","architecture,historic_architecture,interesting_places,shops,bakeries,tourist_facilities,other_buildings_and_structures",Paris,FR,48.858318,2.35172,2
Chapelle dorée of Église Saint-Gervais-Saint-Protais,"religion,churches,interesting_places,other_churches",Paris,FR,48.855556,2.354444,3
"79 rue de la Verrerie, Paris","historic_architecture,architecture,interesting_places,other_buildings_and_structures",Paris,FR,48.858425,2.35145,2
Azzedine Alaïa Gallery,"museums,cultural,interesting_places,other_museums",Paris,FR,48.857506,2.354742,3
Pont d'Arcole,"bridges,architecture,interesting_places,other_bridges",Paris,FR,48.855148,2.350318,3
"62 rue de la Verrerie - 15 rue du Renard, Paris","historic_architecture,architecture,interesting_places,other_buildings_and_structures",Paris,FR,48.858532,2.351803,2
St-Gervais-et-St-Protais,"religion,churches,interesting_places,catholic_churches",Paris,FR,48.855511,2.354697,3
Federico García Lorca Garden,"urban_environment,gardens_and_parks,cultural,interesting_places",Paris,FR,48.854717,2.353239,3
"80 rue de l'Hôtel-de-Ville, Paris","sundials,other,historic,monuments_and_memorials,interesting_places,monuments",Paris,FR,48.855061,2.35423,2
"85 rue de la Verrerie, Paris","historic_architecture,architecture,interesting_places,other_buildings_and_structures",Paris,FR,48.858555,2.351128,2
L'Arche Marion,"historic,monuments_and_memorials,burial_places,interesting_places,other_burial_places,monuments",Paris,FR,48.855045,2.350103,2
"2-14 rue François-Miron, Paris","historic_architecture,architecture,interesting_places,other_buildings_and_structures",Paris,FR,48.85577,2.35515,2
cimetière Saint-Landry,"cemeteries,historic,burial_places,interesting_places",Paris,FR,48.85479,2.35041,2
"87 rue de la Verrerie, Paris","historic_architecture,architecture,interesting_places,other_buildings_and_structures",Paris,FR,48.858624,2.351011,2
"70 rue de la Verrerie - 1 rue des Juges-Consuls, Paris","historic_architecture,architecture,interesting_places,other_buildings_and_structures",Paris,FR,48.858681,2.351225,2
"72 rue de la Verrerie, Paris","historic_architecture,architecture,interesting_places,other_buildings_and_structures",Paris,FR,48.858692,2.351161,2
Couvent de Sainte-Croix de la Bretonnerie,"religion,monasteries,interesting_places",Paris,FR,48.85828,2.35437,3
"89 rue de la Verrerie, Paris","historic_architecture,architecture,interesting_places,other_buildings_and_structures",Paris,FR,48.858685,2.350892,2
"74 rue de la Verrerie, Paris","historic_architecture,architecture,interesting_places,other_buildings_and_structures",Paris,FR,48.858749,2.351075,2
Square Sainte-Croix de la Bretonnerie,"gardens_and_parks,cultural,urban_environment,interesting_places",Paris,FR,48.858215,2.354637,3
église Saint-Landry de Paris,"religion,churches,interesting_places,other_churches",Paris,FR,48.855,2.349722,3
Nouveau Latina,"cultural,cinemas,theatres_and_entertainments,interesting_places",Paris,FR,48.858685,2.353654,3
"91 rue de la Verrerie - 12 rue Saint-Bon, Paris","historic_architecture,architecture,interesting_places,other_buildings_and_structures",Paris,FR,48.85873,2.350764,2
Cimetière Saint-Gervais,"cemeteries,historic,burial_places,interesting_places",Paris,FR,48.855835,2.355556,3
"3 rue des Juges-Consuls - 5 rue du Cloître-Saint-Merri, Paris","historic_architecture,architecture,interesting_places,other_buildings_and_structures",Paris,FR,48.858898,2.351364,2
Église des Billettes,"religion,churches,interesting_places,other_churches",Paris,FR,48.857983,2.355118,3
Rue des barres,"other,unclassified_objects,interesting_places,tourist_object",Paris,FR,48.85532,2.355245,3
Pont Notre-Dame,"bridges,architecture,interesting_places,stone_bridges",Paris,FR,48.856167,2.348611,3
Centre sportif Saint-Merri,"sport,religion,architecture,historic_architecture,churches,interesting_places,pools,other_buildings_and_structures,other_churches",Paris,FR,48.858994,2.352709,3
La Force Prison,"historic_architecture,architecture,interesting_places,other_buildings_and_structures",Paris,FR,48.855598,2.35556,3
"76 rue de la Verrerie, Paris","historic_architecture,architecture,interesting_places,other_buildings_and_structures",Paris,FR,48.858856,2.350806,2
Église des Billettes,"religion,churches,cultural,museums,interesting_places,art_galleries,other_churches",Paris,FR,48.858109,2.35517,3
Square Couperin,"urban_environment,gardens_and_parks,cultural,interesting_places",Paris,FR,48.85561,2.355701,3
,"urban_environment,gardens_and_parks,cultural,interesting_places",Paris,FR,48.854126,2.351466,2
ancienne chapelle Saint-Aignan,"religion,churches,interesting_places,other_churches",Paris,FR,48.854366,2.350408,3
Saint-Jacques Tower,"towers,architecture,interesting_places,other_towers",Paris,FR,48.858002,2.348922,3
Square de la Tour Saint-Jacques,"urban_environment,gardens_and_parks,cultural,interesting_places",Paris,FR,48.857883,2.348761,3
Saint-Merri,"religion,churches,interesting_places,other_churches",Paris,FR,48.859177,2.352846,3
Église Saint-Jacques-de-la-Boucherie,"religion,churches,interesting_places,other_churches",Paris,FR,48.858055,2.348889,3
Saint-Merri,"religion,churches,interesting_places,catholic_churches",Paris,FR,48.859081,2.350804,3
Gérard de Nerval,"historic,monuments_and_memorials,interesting_places,monuments",Paris,FR,48.8578,2.348613,3
Hôtel Pottier de Blancmesnil,"historic_architecture,architecture,interesting_places,other_buildings_and_structures",Paris,FR,48.859207,2.353047,2
Chez Julien,"architecture,historic_architecture,interesting_places,restaurants,foods,shops,bakeries,tourist_facilities,other_buildings_and_structures",Paris,FR,48.854748,2.355136,2
"2 rue Saint-Merri - 25 rue du Temple, Paris","historic_architecture,architecture,interesting_places,other_buildings_and_structures",Paris,FR,48.859123,2.353669,2
"76 rue Saint-Martin, Paris","historic_architecture,architecture,interesting_places,other_buildings_and_structures",Paris,FR,48.859024,2.350367,2
"11 rue Saint-Merri, Paris","historic_architecture,architecture,interesting_places,other_buildings_and_structures",Paris,FR,48.859272,2.352972,2
"24 rue Chanoinesse, Paris","historic_architecture,architecture,interesting_places,foods,bars,tourist_facilities,other_buildings_and_structures",Paris,FR,48.854168,2.350278,2
"Crèmerie, 6 rue du Pont-Louis-Philippe","historic_architecture,architecture,interesting_places,other_buildings_and_structures",Paris,FR,48.854721,2.355278,2
Hôtel de la Motte-Montgaubert,"historic_architecture,architecture,interesting_places,other_buildings_and_structures",Paris,FR,48.853901,2.3513,3
église Saint-Symphorien (Paris),"religion,churches,interesting_places,other_churches",Paris,FR,48.855099,2.34865,3
Théâtre de la Ville,"cultural,theatres_and_entertainments,interesting_places,other_theatres",Paris,FR,48.857288,2.348071,3
"59 rue Saint-Martin, Paris","historic_architecture,architecture,interesting_places,other_buildings_and_structures",Paris,FR,48.859116,2.350228,2
"57 rue Saint-Martin - 2-4 rue des Lombards, Paris","historic_architecture,architecture,interesting_places,other_buildings_and_structures",Paris,FR,48.859089,2.350131,2
"61 rue Saint-Martin, Paris","historic_architecture,architecture,interesting_places,other_buildings_and_structures",Paris,FR,48.859138,2.350247,2
Paris St Merri church main organ,"other,unclassified_objects,interesting_places,historic_object",Paris,FR,48.859211,2.35047,2
"63 rue Saint-Martin, Paris","historic_architecture,architecture,interesting_places,other_buildings_and_structures",Paris,FR,48.859188,2.350269,2
Stravinsky Fountain,"fountains,historic,cultural,urban_environment,monuments_and_memorials,interesting_places,sculptures,monuments",Paris,FR,48.859444,2.351389,3
Hôtel Le Rebours,"historic_architecture,architecture,interesting_places,other_buildings_and_structures",Paris,FR,48.859402,2.35333,3
Le renard,"cultural,urban_environment,interesting_places,sculptures",Paris,FR,48.859447,2.351363,3
"6 rue des Lombards, Paris","historic_architecture,architecture,interesting_places,other_buildings_and_structures",Paris,FR,48.859123,2.350022,2
"65 rue Saint-Martin, Paris","historic_architecture,architecture,interesting_places,other_buildings_and_structures",Paris,FR,48.859219,2.350281,2
Lafayette Anticipations,"cultural,museums,interesting_places,other_museums",Paris,FR,48.858978,2.354768,3
Hôtel de Vibraye,"historic_architecture,architecture,interesting_places,other_buildings_and_structures",Paris,FR,48.856667,2.356667,2
"67 rue Saint-Martin, Paris","historic_architecture,architecture,interesting_places,other_buildings_and_structures",Paris,FR,48.859268,2.350292,2
"8 rue des Lombards, Paris","historic_architecture,architecture,interesting_places,other_buildings_and_structures",Paris,FR,48.859154,2.349947,2
"30 rue François-Miron, Paris","historic_architecture,architecture,interesting_places,other_buildings_and_structures",Paris,FR,48.855537,2.356406,2
"69 rue Saint-Martin, Paris","historic_architecture,architecture,interesting_places,other_buildings_and_structures",Paris,FR,48.859329,2.350311,2
synagogue de la rue du Bourg-Tibourg,"religion,synagogues,interesting_places",Paris,FR,48.857502,2.356562,2
"28 rue du Bourg-Tibourg, Paris","historic_architecture,architecture,interesting_places,other_buildings_and_structures",Paris,FR,48.857651,2.356492,2
"71 rue Saint-Martin, Paris","historic_architecture,architecture,interesting_places,other_buildings_and_structures",Paris,FR,48.859386,2.350356,2
"10 rue des Lombards, Paris","historic_architecture,architecture,interesting_places,other_buildings_and_structures",Paris,FR,48.859219,2.34985,2
Église Sainte-Marine,"religion,churches,interesting_places,other_churches",Paris,FR,48.854115,2.34954,3
"56 rue de l'Hôtel-de-Ville, Paris","historic_architecture,architecture,interesting_places,other_buildings_and_structures",Paris,FR,48.854534,2.355622,2
"73 rue Saint-Martin, Paris","historic_architecture,architecture,interesting_places,other_buildings_and_structures",Paris,FR,48.859421,2.350397,2
"84 rue Saint-Martin, Paris","historic_architecture,architecture,interesting_places,other_buildings_and_structures",Paris,FR,48.859501,2.350633,2
"12 rue des Lombards, Paris","historic_architecture,architecture,interesting_places,other_buildings_and_structures",Paris,FR,48.859222,2.349744,2
"75 rue Saint-Martin, Paris","historic_architecture,architecture,interesting_places,other_buildings_and_structures",Paris,FR,48.859451,2.350408,2
Mur des Justes,"historic,monuments_and_memorials,interesting_places,monuments",Paris,FR,48.85498,2.3562,3
Pont Louis Tomlinson,"bridges,architecture,interesting_places,other_bridges",Paris,FR,48.85387,2.35445,2
Jardin du Bataillon de l'ONU,"urban_environment,gardens_and_parks,cultural,interesting_places",Paris,FR,48.854343,2.355464,3
"15 rue des Lombards, Paris","historic_architecture,architecture,interesting_places,other_buildings_and_structures",Paris,FR,48.859154,2.349475,2
"86 rue Saint-Martin, Paris","historic_architecture,architecture,interesting_places,other_buildings_and_structures",Paris,FR,48.859554,2.350678,2
"77 rue Saint-Martin, Paris","historic_architecture,architecture,interesting_places,other_buildings_and_structures",Paris,FR,48.859501,2.350442,2
Pont Louis-Philippe,"bridges,architecture,interesting_places,stone_bridges",Paris,FR,48.853832,2.354402,3
"14 rue des Lombards, Paris","historic_architecture,architecture,interesting_places,other_buildings_and_structures",Paris,FR,48.859257,2.349681,2
"79 rue Saint-Martin, Paris","historic_architecture,architecture,interesting_places,other_buildings_and_structures",Paris,FR,48.859531,2.350442,2
Mémorial de la Shoah,"historic,monuments_and_memorials,burial_places,cultural,museums,interesting_places,other_museums,other_burial_places,monuments",Paris,FR,48.854816,2.356161,3
Théâtre Essaïon,"cultural,theatres_and_entertainments,interesting_places,other_theatres",Paris,FR,48.859688,2.353259,2
"16 rue des Lombards, Paris","historic_architecture,architecture,interesting_places,other_buildings_and_structures",Paris,FR,48.85928,2.349594,2
Wallace fountains on place Louis-Lépine,"historic,cultural,urban_environment,monuments_and_memorials,interesting_places,sculptures,monuments",Paris,FR,48.855396,2.34772,3
"81 rue Saint-Martin, Paris","historic_architecture,architecture,interesting_places,other_buildings_and_structures",Paris,FR,48.859592,2.350506,2
Maisons du Moyen Âge,"historic,monuments_and_memorials,burial_places,interesting_places,other_burial_places,monuments",Paris,FR,48.855789,2.3569,2
"17 rue des Lombards, Paris","historic_architecture,architecture,interesting_places,other_buildings_and_structures",Paris,FR,48.859203,2.349378,2
Rue Quincampoix,"historic,monuments_and_memorials,burial_places,interesting_places,other_burial_places,monuments",Paris,FR,48.85928,2.34953,2
"88 rue Saint-Martin, Paris","historic_architecture,architecture,interesting_places,other_buildings_and_structures",Paris,FR,48.859669,2.350742,2
"83 rue Saint-Martin, Paris","historic_architecture,architecture,interesting_places,other_buildings_and_structures",Paris,FR,48.859634,2.350539,2
"6 rue Quincampoix, Paris","historic_architecture,architecture,interesting_places,other_buildings_and_structures",Paris,FR,48.859371,2.349647,2
"8 rue Quincampoix, Paris","historic_architecture,architecture,interesting_places,other_buildings_and_structures",Paris,FR,48.859421,2.349722,2
Café de la Gare,"architecture,historic_architecture,cultural,theatres_and_entertainments,interesting_places,other_theatres,cafes,foods,tourist_facilities,other_buildings_and_structures",Paris,FR,48.859779,2.353376,3
"10 rue Quincampoix, Paris","historic_architecture,architecture,interesting_places,other_buildings_and_structures",Paris,FR,48.859463,2.349756,2
Le Point Virgule,"cultural,theatres_and_entertainments,interesting_places,other_theatres",Paris,FR,48.857876,2.356833,3
"87 rue Saint-Martin, Paris","historic_architecture,architecture,interesting_places,other_buildings_and_structures",Paris,FR,48.85973,2.350581,2
"90 rue Saint-Martin, Paris","historic_architecture,architecture,interesting_places,other_buildings_and_structures",Paris,FR,48.859791,2.350806,2
"12 rue Quincampoix, Paris","historic_architecture,architecture,interesting_places,other_buildings_and_structures",Paris,FR,48.859512,2.349775,2
Cité,"railway_stations,industrial_facilities,interesting_places",Paris,FR,48.855297,2.347548,3
Georges,"national_museums,architecture,historic_architecture,cultural,museums,interesting_places,restaurants,foods,art_galleries,tourist_facilities,other_buildings_and_structures",Paris,FR,48.85994,2.352297,3
"22 rue des Lombards, Paris","historic_architecture,architecture,interesting_places,other_buildings_and_structures",Paris,FR,48.859371,2.349369,2
"89 rue Saint-Martin, Paris","historic_architecture,architecture,interesting_places,other_buildings_and_structures",Paris,FR,48.859776,2.350614,2
"42 rue François-Miron, Paris","historic_architecture,architecture,interesting_places,other_buildings_and_structures",Paris,FR,48.855602,2.35705,2
Clos des blancs manteaux,"cultural,theatres_and_entertainments,interesting_places,other_theatres",Paris,FR,48.858475,2.356421,3
Fontaine du Palmier,"fountains,historic,monuments_and_memorials,cultural,urban_environment,interesting_places,sculptures,monuments",Paris,FR,48.857502,2.347286,3
"92 rue Saint-Martin, Paris","historic_architecture,architecture,interesting_places,other_buildings_and_structures",Paris,FR,48.85984,2.350839,2
"7 rue Quincampoix, Paris","historic_architecture,architecture,interesting_places,other_buildings_and_structures",Paris,FR,48.85952,2.349625,2
Hôtel du 22 rue Geoffroy-l'Asnier,"historic_architecture,architecture,interesting_places,other_buildings_and_structures",Paris,FR,48.854805,2.356555,3
"24 rue Vieille-du-Temple, Paris","historic_architecture,architecture,interesting_places,other_buildings_and_structures",Paris,FR,48.85704,2.357297,2
"14 rue Quincampoix, Paris","historic_architecture,architecture,interesting_places,other_buildings_and_structures",Paris,FR,48.859627,2.349872,2
"9 rue Quincampoix, Paris","historic_architecture,architecture,interesting_places,other_buildings_and_structures",Paris,FR,48.859531,2.349606,2
"41 rue Saint-Merri, Paris","historic_architecture,architecture,interesting_places,other_buildings_and_structures",Paris,FR,48.859932,2.351214,2
Petit Châtelet,"fortifications,historic,interesting_places,castles",Paris,FR,48.857498,2.347222,3
"24 rue des Lombards, Paris","historic_architecture,architecture,interesting_places,other_buildings_and_structures",Paris,FR,48.859409,2.349294,2
"11 rue Quincampoix, Paris","historic_architecture,architecture,interesting_places,other_buildings_and_structures",Paris,FR,48.859562,2.349636,2
"94 rue Saint-Martin, Paris","historic_architecture,architecture,interesting_places,other_buildings_and_structures",Paris,FR,48.859894,2.350858,2
église Saint-Leufroy de Paris,"religion,churches,interesting_places,other_churches",Paris,FR,48.857639,2.34725,3
Association Paris historique,"other,unclassified_objects,interesting_places,historic_object",Paris,FR,48.855568,2.357155,2
Hôtel Raoul de la Faye,"historic_architecture,architecture,interesting_places,other_buildings_and_structures",Paris,FR,48.857677,2.357136,2
église Sainte-Croix de la Cité,"religion,churches,interesting_places,other_churches",Paris,FR,48.855068,2.347547,3
maison d'Ourscamp,"historic,archaeology,interesting_places,other_archaeological_sites",Paris,FR,48.855572,2.357163,3
hôtel du 28 rue Geoffroy-l'Asnier,"historic_architecture,architecture,interesting_places,other_buildings_and_structures",Paris,FR,48.855,2.3568,2
"43 rue Saint-Merri, Paris","historic_architecture,architecture,interesting_places,other_buildings_and_structures",Paris,FR,48.859959,2.351169,2
"16 rue Quincampoix, Paris","historic_architecture,architecture,interesting_places,other_buildings_and_structures",Paris,FR,48.859688,2.349906,2
"45 rue Saint-Merri, Paris","historic_architecture,architecture,interesting_places,other_buildings_and_structures",Paris,FR,48.85997,2.351128,2
"96 rue Saint-Martin, Paris","historic_architecture,architecture,interesting_places,other_buildings_and_structures",Paris,FR,48.859943,2.350903,2
"18 rue Quincampoix, Paris","historic_architecture,architecture,interesting_places,other_buildings_and_structures",Paris,FR,48.859718,2.349947,2
"13 rue Quincampoix, Paris","historic_architecture,architecture,interesting_places,other_buildings_and_structures",Paris,FR,48.859634,2.349689,2
"47 rue Saint-Merri, Paris","historic_architecture,architecture,interesting_places,other_buildings_and_structures",Paris,FR,48.859978,2.351042,2
Maison de Jacques Cœur,"historic_architecture,architecture,interesting_places,other_buildings_and_structures",Paris,FR,48.858994,2.356031,2
"98 rue Saint-Martin, Paris","historic_architecture,architecture,interesting_places,other_buildings_and_structures",Paris,FR,48.85997,2.350914,2
Église Saint-Pierre-aux-Bœufs de Paris,"religion,churches,interesting_places,other_churches",Paris,FR,48.853889,2.348889,3
"53 quai de Bourbon, Paris","historic_architecture,architecture,interesting_places,other_buildings_and_structures",Paris,FR,48.853188,2.353358,2
"100 rue Saint-Martin, Paris","historic_architecture,architecture,interesting_places,other_buildings_and_structures",Paris,FR,48.860001,2.350944,2
Pont au Change,"stone_bridges,bridges,interesting_places,architecture",Paris,FR,48.85685,2.34689,3
"15 rue Quincampoix, Paris","historic_architecture,architecture,interesting_places,other_buildings_and_structures",Paris,FR,48.859737,2.349756,2
Île Saint-Louis,"historic,monuments_and_memorials,burial_places,interesting_places,other_burial_places,restaurants,foods,monuments,tourist_facilities",Paris,FR,48.853298,2.354095,2
Musée de Notre Dame de Paris,"museums,cultural,interesting_places,other_museums",Paris,FR,48.853333,2.350139,3
Théâtre du Tourtour,"theatres_and_entertainments,cultural,interesting_places,other_theatres",Paris,FR,48.859844,2.349995,2
église de la Madeleine-en-la-Cité,"religion,churches,interesting_places,other_churches",Paris,FR,48.854618,2.347706,3
Paris Métro entrances by Hector Guimard,"urban_environment,cultural,interesting_places,installation",Paris,FR,48.855232,2.34716,2
Hôtel de Chalon-Luxembourg,"historic_architecture,architecture,interesting_places,other_buildings_and_structures",Paris,FR,48.854805,2.356944,3
Église Saint-Jean-le-Rond de Paris,"religion,churches,interesting_places,other_churches",Paris,FR,48.853481,2.349443,3
Lutetia,"settlements,historic,archaeology,interesting_places",Paris,FR,48.854721,2.3475,3
Lukotekia,"settlements,historic,archaeology,interesting_places",Paris,FR,48.854721,2.3475,2
Tribunal de commerce de Paris,"historic_architecture,architecture,interesting_places,other_buildings_and_structures",Paris,FR,48.855701,2.34681,3
"120 rue Saint-Martin - 59 rue Simon-le-Franc, Paris","historic_architecture,architecture,interesting_places,other_buildings_and_structures",Paris,FR,48.860279,2.351667,2
Hôtel Roualle de Boisgelin,"historic_architecture,architecture,interesting_places,other_buildings_and_structures",Paris,FR,48.853195,2.354444,2
"28 rue des Blancs-Manteaux, Paris","historic_architecture,architecture,interesting_places,shops,bakeries,tourist_facilities,other_buildings_and_structures",Paris,FR,48.859444,2.355833,2
église Saint-Barthélemy de Paris,"religion,churches,interesting_places,other_churches",Paris,FR,48.855835,2.346667,3
National museum of modern art,"national_museums,cultural,museums,interesting_places,art_galleries",Paris,FR,48.860325,2.35226,3
"20 rue Quincampoix, Paris","historic_architecture,architecture,interesting_places,other_buildings_and_structures",Paris,FR,48.860035,2.349925,2
Notre Dame,"other,unclassified_objects,interesting_places,historic_object",Paris,FR,48.853367,2.349303,3
Le Pot doré,"historic,cultural,urban_environment,monuments_and_memorials,interesting_places,sculptures,monuments",Paris,FR,48.860401,2.35169,2
Théâtre de la Cité-Variétés,"architecture,historic_architecture,theatres_and_entertainments,cultural,interesting_places,destroyed_objects,other_theatres",Paris,FR,48.855804,2.346522,3
Châtelet,"railway_stations,industrial_facilities,interesting_places",Paris,FR,48.85878,2.34741,3
"36 rue Vieille-du-Temple, Paris","historic_architecture,architecture,interesting_places,other_buildings_and_structures",Paris,FR,48.857677,2.357792,2
Pont Saint-Louis,"view_points,other,interesting_places",Paris,FR,48.852768,2.352763,3
Pont Saint-Louis,"bridges,architecture,interesting_places,other_bridges",Paris,FR,48.85276,2.352762,3
"25 rue Quincampoix, Paris","historic_architecture,architecture,interesting_places,other_buildings_and_structures",Paris,FR,48.860176,2.349992,2
Horizontal,"historic,monuments_and_memorials,urban_environment,cultural,interesting_places,installation,sculptures,monuments",Paris,FR,48.860447,2.351724,2
Palais épiscopal de Paris,"religion,palaces,architecture,historic_architecture,other_temples,interesting_places",Paris,FR,48.8531,2.34972,3
Chapelle Saint-Christophe de Paris,"religion,churches,interesting_places,other_churches",Paris,FR,48.8531,2.34972,3
Ancienne cathédrale Saint-Étienne de Paris,"religion,cathedrals,interesting_places",Paris,FR,48.8531,2.34972,3
Le Duc des Lombards,"cultural,theatres_and_entertainments,interesting_places,other_theatres",Paris,FR,48.859692,2.348605,3
Charles V clock,"other,unclassified_objects,interesting_places,historic_object",Paris,FR,48.856201,2.346308,2
Cathédrale primitive Notre-Dame de Paris,"religion,cathedrals,interesting_places",Paris,FR,48.853062,2.34972,3
Boutique Georges Pompidou,"national_museums,urban_environment,cultural,museums,interesting_places,installation,art_galleries",Paris,FR,48.860504,2.352395,3
Chapelle Sainte-Marie,"religion,other_temples,interesting_places",Paris,FR,48.85873,2.357186,3
Cathedral of Notre Dame,"religion,architecture,historic_architecture,cathedrals,churches,interesting_places,destroyed_objects,catholic_churches",Paris,FR,48.852936,2.35005,3
Point zéro des routes de France,"milestones,historic,monuments_and_memorials,interesting_places",Paris,FR,48.853325,2.34886,3
fontaine du Parvis Notre-Dame,"fountains,historic,cultural,urban_environment,monuments_and_memorials,interesting_places,sculptures,monuments",Paris,FR,48.853428,2.348637,2
Tour de l'Horloge,"towers,architecture,interesting_places,clock_towers",Paris,FR,48.856194,2.346233,3
"111 rue Saint-Martin, Paris","historic_architecture,architecture,interesting_places,other_buildings_and_structures",Paris,FR,48.860458,2.350925,2
Louis XIII,"historic,cultural,urban_environment,monuments_and_memorials,interesting_places,sculptures,monuments",Paris,FR,48.852814,2.35042,2
Crédit municipal de Paris,"architecture,historic_architecture,interesting_places,banks,bank,tourist_facilities,other_buildings_and_structures",Paris,FR,48.859325,2.356603,3
Square Jean XXIII,"historic,monuments_and_memorials,burial_places,interesting_places,other_burial_places,monuments",Paris,FR,48.852627,2.35196,2
pont Marchand,"architecture,bridges,interesting_places,stone_bridges",Paris,FR,48.8568,2.34616,3
Tribunal de Commerce,"historic,monuments_and_memorials,burial_places,interesting_places,other_burial_places,monuments",Paris,FR,48.85564,2.34632,2
Place du Bataillon-Français-de-l'ONU-en-Corée,"historic,burial_places,interesting_places,war_memorials",Paris,FR,48.853901,2.35667,3
"9 rue Aubriot, Paris","historic_architecture,architecture,interesting_places,other_buildings_and_structures",Paris,FR,48.858822,2.357244,2
"113 rue Saint-Martin, Paris","historic_architecture,architecture,interesting_places,other_buildings_and_structures",Paris,FR,48.860508,2.350944,2
Centre Georges Pompidou,"national_museums,cultural,museums,interesting_places,art_galleries",Paris,FR,48.860592,2.352474,3
Sainte-Geneviève-des-Ardents,"religion,churches,interesting_places,other_churches",Paris,FR,48.853729,2.34796,3
fontaine du Trésor,"fountains,historic,cultural,urban_environment,monuments_and_memorials,interesting_places,sculptures,monuments",Paris,FR,48.856899,2.35828,3
Théâtre des Blancs-Manteaux,"cultural,theatres_and_entertainments,interesting_places,other_theatres",Paris,FR,48.858715,2.357397,3
Archeological crypt of the île de la Cité,"historic,archaeology,cultural,museums,interesting_places,other_museums,other_archaeological_sites",Paris,FR,48.853542,2.348198,3
"115 rue Saint-Martin, Paris","historic_architecture,architecture,interesting_places,other_buildings_and_structures",Paris,FR,48.860558,2.351,2
Église Saint-Pierre des Arcis,"religion,churches,interesting_places,other_churches",Paris,FR,48.855228,2.34643,3
Hôtel Amelot de Bisseuil,"historic_architecture,architecture,interesting_places,other_buildings_and_structures",Paris,FR,48.858223,2.357861,3
église Saint-Christophe (ancienne),"religion,churches,interesting_places,other_churches",Paris,FR,48.853981,2.34748,3
Île Saint-Louis,"historic,monuments_and_memorials,burial_places,interesting_places,other_burial_places,monuments",Paris,FR,48.852528,2.3523,2
La fontaine de la Vierge,"fountains,historic,monuments_and_memorials,urban_environment,cultural,interesting_places,sculptures,monuments",Paris,FR,48.852562,2.351384,3
"117 rue Saint-Martin, Paris","historic_architecture,architecture,interesting_places,other_buildings_and_structures",Paris,FR,48.8606,2.351011,2
Rue des Rosiers,"other,unclassified_objects,interesting_places,tourist_object",Paris,FR,48.857788,2.358137,3
Théâtre du Châtelet,"theatres_and_entertainments,concert_halls,cultural,interesting_places,music_venues,opera_houses",Paris,FR,48.857796,2.346263,3
Église Saint-Éloi Barnabites (Paris),"religion,churches,interesting_places,other_churches",Paris,FR,48.854935,2.346483,3
Conciergerie,"fortifications,historic,cultural,museums,interesting_places,castles,other_museums",Paris,FR,48.855949,2.346026,3
"119 rue Saint-Martin, Paris","historic_architecture,architecture,interesting_places,other_buildings_and_structures",Paris,FR,48.860668,2.351053,2
Hôtel du Chevalier-du-Guet,"architecture,historic_architecture,interesting_places,destroyed_objects",Paris,FR,48.858471,2.346568,3
Église Saint-Denis-du-Pas,"religion,churches,interesting_places,other_churches",Paris,FR,48.852501,2.351111,3
"36 rue Quincampoix, Paris","historic_architecture,architecture,interesting_places,other_buildings_and_structures",Paris,FR,48.860615,2.350442,2
"27 rue Quincampoix, Paris","historic_architecture,architecture,interesting_places,other_buildings_and_structures",Paris,FR,48.860615,2.350442,2
"44 rue Vieille-du-Temple - 52 rue des Rosiers, Paris","historic_architecture,architecture,interesting_places,other_buildings_and_structures",Paris,FR,48.857952,2.358208,2
Collégiale Sainte-Opportune de Paris,"religion,churches,interesting_places,other_churches",Paris,FR,48.859501,2.3476,3
"121 rue Saint-Martin, Paris","historic_architecture,architecture,interesting_places,other_buildings_and_structures",Paris,FR,48.860741,2.351086,2
Notre Dame Treasure,"religion,cathedrals,churches,cultural,museums,interesting_places,other_museums,catholic_churches",Paris,FR,48.852631,2.35006,3
Fontaine des Guillemites,"fountains,historic,cultural,urban_environment,monuments_and_memorials,interesting_places,sculptures,monuments",Paris,FR,48.85873,2.357736,3
jardin de la place Jean-Paul-II,"gardens_and_parks,cultural,urban_environment,interesting_places",Paris,FR,48.853298,2.3482,3
Palais de l'Archevêché de Paris,"religion,palaces,architecture,historic_architecture,other_temples,interesting_places",Paris,FR,48.852501,2.350556,3
"38 rue Quincampoix, Paris","historic_architecture,architecture,interesting_places,other_buildings_and_structures",Paris,FR,48.860699,2.350483,2
"19bis quai de Bourbon - 28 rue Le Regrattier, Paris","historic_architecture,architecture,interesting_places,other_buildings_and_structures",Paris,FR,48.852894,2.355378,2
"123 rue Saint-Martin, Paris","historic_architecture,architecture,interesting_places,other_buildings_and_structures",Paris,FR,48.860806,2.351139,2
Hôtel de Beauvais,"historic_architecture,architecture,interesting_places,other_buildings_and_structures",Paris,FR,48.855194,2.358333,3
Square Jean XXIII,"urban_environment,gardens_and_parks,cultural,interesting_places",Paris,FR,48.852348,2.351269,3
"125 rue Saint-Martin, Paris","historic_architecture,architecture,interesting_places,other_buildings_and_structures",Paris,FR,48.860863,2.351161,2
Notre-Dame-des-Blancs-Manteaux,"religion,churches,interesting_places,catholic_churches",Paris,FR,48.858955,2.357737,3
Abbaye Notre-Dame-des-Blancs-Manteaux,"religion,monasteries,interesting_places",Paris,FR,48.858612,2.358056,3
orme Saint-Gervais,"other,unclassified_objects,interesting_places,historic_object",Paris,FR,48.852402,2.3539,3
"23 rue des Écouffes, Paris","historic_architecture,architecture,interesting_places,other_buildings_and_structures",Paris,FR,48.857132,2.358767,2
Charlemagne et ses leudes,"historic,monuments_and_memorials,urban_environment,cultural,interesting_places,sculptures,monuments",Paris,FR,48.853096,2.34827,3
Square Charles Victor Langlois,"urban_environment,gardens_and_parks,cultural,interesting_places",Paris,FR,48.858704,2.358013,3
"127 rue Saint-Martin, Paris","historic_architecture,architecture,interesting_places,other_buildings_and_structures",Paris,FR,48.860916,2.351192,2
Palais de la Cité,"palaces,architecture,historic_architecture,interesting_places",Paris,FR,48.856388,2.345556,3
Sunside Sunset,"nightclubs,cultural,theatres_and_entertainments,interesting_places,adult,music_venues,foods,bars,tourist_facilities",Paris,FR,48.859863,2.347728,3
Square Albert Schweitzer,"urban_environment,gardens_and_parks,cultural,interesting_places",Paris,FR,48.85434,2.357931,3
Synagogue Beit Yossef,"religion,synagogues,interesting_places",Paris,FR,48.856972,2.358868,2
Hôtel Brulart,"historic_architecture,architecture,interesting_places,other_buildings_and_structures",Paris,FR,48.857254,2.358831,2
Centre Wallonie-Bruxelles,"other,unclassified_objects,interesting_places,tourist_object",Paris,FR,48.860954,2.351115,3
Cantine Afro-Cubaine,"railway_stations,industrial_facilities,architecture,historic_architecture,interesting_places,restaurants,foods,tourist_facilities,other_buildings_and_structures",Paris,FR,48.860138,2.348171,3
"61 rue Saint-Louis-en-l'Île, Paris","historic_architecture,architecture,interesting_places,other_buildings_and_structures",Paris,FR,48.852501,2.354722,2
Tour de l'enceinte de Philippe Auguste,"architecture,historic_architecture,fortifications,historic,interesting_places,destroyed_objects,other_fortifications",Paris,FR,48.859673,2.357033,2
"42 rue Quincampoix, Paris","historic_architecture,architecture,interesting_places,other_buildings_and_structures",Paris,FR,48.860897,2.350539,2
"23 rue des Rosiers, Paris","historic_architecture,architecture,interesting_places,other_buildings_and_structures",Paris,FR,48.857368,2.358875,2
"62 rue des Lombards, Paris","historic_architecture,architecture,interesting_places,other_buildings_and_structures",Paris,FR,48.85989,2.347611,2
fontaine Maubuée,"fountains,historic,monuments_and_memorials,urban_environment,cultural,interesting_places,sculptures,monuments",Paris,FR,48.861031,2.351295,3
"44 rue Quincampoix, Paris","historic_architecture,architecture,interesting_places,other_buildings_and_structures",Paris,FR,48.860943,2.350603,2
"41 rue Quincampoix, Paris","historic_architecture,architecture,interesting_places,other_buildings_and_structures",Paris,FR,48.860912,2.350389,2
Hôtel de Jassaud,"historic_architecture,architecture,interesting_places,other_buildings_and_structures",Paris,FR,48.852699,2.35553,3
Square de l’Île-de-France,"urban_environment,gardens_and_parks,cultural,interesting_places",Paris,FR,48.852089,2.352227,3
"43 rue Quincampoix, Paris","historic_architecture,architecture,interesting_places,other_buildings_and_structures",Paris,FR,48.860981,2.350408,2
"131 rue Saint-Martin, Paris","historic_architecture,architecture,interesting_places,other_buildings_and_structures",Paris,FR,48.861099,2.351267,2
Porte du Chaume,"architecture,historic_architecture,fortifications,historic,defensive_walls,interesting_places,destroyed_objects",Paris,FR,48.860001,2.35682,3
"45 rue Quincampoix, Paris","historic_architecture,architecture,interesting_places,other_buildings_and_structures",Paris,FR,48.861023,2.350431,2
Hôtel d'Aumont,"historic_architecture,architecture,interesting_places,other_buildings_and_structures",Paris,FR,48.854443,2.358333,3
Châtelet,"railway_stations,industrial_facilities,architecture,historic_architecture,interesting_places,restaurants,foods,tourist_facilities,other_buildings_and_structures",Paris,FR,48.858284,2.345711,3
"2 rue Saint-Germain-l'Auxerrois - 1 rue des Lavandières-Sainte-Opportune, Paris","historic_architecture,architecture,interesting_places,other_buildings_and_structures",Paris,FR,48.858166,2.345639,2
"2 rue de la Ferronnerie - 1-3 rue des Innocents - 43 rue Saint-Denis, Paris","historic_architecture,architecture,interesting_places,other_buildings_and_structures",Paris,FR,48.860306,2.348056,2
Paris Métro entrances by Hector Guimard,"urban_environment,cultural,interesting_places,installation",Paris,FR,48.859032,2.346262,2
Église Saint-Germain-le-Vieux,"religion,churches,interesting_places,other_churches",Paris,FR,48.854309,2.34613,3
"3-9 rue des Lavandières-Sainte-Opportune, Paris","historic_architecture,architecture,interesting_places,other_buildings_and_structures",Paris,FR,48.858307,2.345694,2
"133 rue Saint-Martin, Paris","historic_architecture,architecture,interesting_places,other_buildings_and_structures",Paris,FR,48.861172,2.351311,2
Nozitagne Lemsebale F580 368,"historic,cultural,urban_environment,monuments_and_memorials,interesting_places,installation,sculptures,monuments",Paris,FR,48.859299,2.35788,2
"25 rue des Lavandières-Sainte-Opportune - 1 rue du Plat-d'Étain, Paris","historic_architecture,architecture,interesting_places,other_buildings_and_structures",Paris,FR,48.859333,2.346556,2
Hôtel du 17 quai de Bourbon,"historic_architecture,architecture,interesting_places,other_buildings_and_structures",Paris,FR,48.852707,2.355967,2
fontaine du marché des Blancs-Manteaux,"fountains,historic,cultural,urban_environment,monuments_and_memorials,interesting_places,sculptures,monuments",Paris,FR,48.857899,2.35895,3
Jardin Albert-Schweitzer,"urban_environment,gardens_and_parks,cultural,interesting_places",Paris,FR,48.853893,2.357919,2
fontaine de Paradis,"fountains,historic,cultural,urban_environment,monuments_and_memorials,interesting_places,sculptures,monuments",Paris,FR,48.860001,2.357,3
"15 rue des Lavandières-Sainte-Opportune, Paris","historic_architecture,architecture,interesting_places,other_buildings_and_structures",Paris,FR,48.858639,2.345861,2
"11 rue des Lavandières-Sainte-Opportune, Paris","historic_architecture,architecture,interesting_places,other_buildings_and_structures",Paris,FR,48.858501,2.34575,2
"17 rue des Lavandières-Sainte-Opportune - 1 rue des Deux-Boules, Paris","historic_architecture,architecture,interesting_places,other_buildings_and_structures",Paris,FR,48.858833,2.346,2
Synagogue,"religion,synagogues,interesting_places",Paris,FR,48.857094,2.35923,2
Centre Wallonie-Bruxelles,"cultural,theatres_and_entertainments,interesting_places,other_theatres",Paris,FR,48.861153,2.350671,3
Hôtel de Soubise,"historic,monuments_and_memorials,burial_places,interesting_places,other_burial_places,monuments",Paris,FR,48.859989,2.35709,2
Grand'Salle du Palais de la Cité,"historic_architecture,architecture,interesting_places,shops,marketplaces,tourist_facilities,other_buildings_and_structures",Paris,FR,48.855167,2.34543,3
maison européenne de la photographie,"cultural,museums,interesting_places,art_galleries",Paris,FR,48.855122,2.358956,3
Hôtel de Fontenay,"historic_architecture,architecture,interesting_places,other_buildings_and_structures",Paris,FR,48.859524,2.357764,2
Fountain,"historic,cultural,urban_environment,monuments_and_memorials,interesting_places,sculptures,monuments",Paris,FR,48.854855,2.345571,2
École élémentaire des Hospitalières-Saint-Gervais,"architecture,historic_architecture,interesting_places,other_buildings_and_structures",Paris,FR,48.857761,2.359128,3
Pont au Double,"bridges,architecture,interesting_places,other_bridges",Paris,FR,48.852596,2.348439,3
couvent de la Merci (Paris),"religion,monasteries,interesting_places",Paris,FR,48.860279,2.35667,3
"30-32 quai d'Orléans, Paris","historic_architecture,architecture,interesting_places,other_buildings_and_structures",Paris,FR,48.852032,2.35395,2
Pont Saint-Charles,"architecture,bridges,interesting_places,stone_bridges",Paris,FR,48.852901,2.34772,3
"4 rue de la Ferronnerie - 5-7 rue des Innocents, Paris","historic_architecture,architecture,interesting_places,other_buildings_and_structures",Paris,FR,48.860332,2.347778,2
"14 rue Le Regrattier, Paris","historic_architecture,architecture,interesting_places,other_buildings_and_structures",Paris,FR,48.85215,2.3547,2
54 rue quincampoix,"cultural,urban_environment,interesting_places,installation",Paris,FR,48.861252,2.350695,3
Saint-Denis de La Chartre,"religion,churches,interesting_places,other_churches",Paris,FR,48.853333,2.346944,3
Porte du Temple,"architecture,historic_architecture,fortifications,historic,defensive_walls,interesting_places,destroyed_objects",Paris,FR,48.860802,2.3556,3
Boutique Bougnat,"historic_architecture,architecture,interesting_places,other_buildings_and_structures",Paris,FR,48.855278,2.359167,2
Notre Dame,"view_points,other,interesting_places",Paris,FR,48.853237,2.347046,3
Petit-Pont - Cardinal Lustiger,"bridges,architecture,interesting_places,stone_bridges",Paris,FR,48.853294,2.346961,3
maison de la corporation des Orfèvres,"historic_architecture,architecture,interesting_places,other_buildings_and_structures",Paris,FR,48.858692,2.345667,2
Hôtel Le Charron,"historic_architecture,architecture,interesting_places,other_buildings_and_structures",Paris,FR,48.8526,2.35619,3
Brancusi's Studio,"cultural,museums,interesting_places,art_galleries",Paris,FR,48.861389,2.351982,3
Espace Claude Berri,"museums,cultural,interesting_places,other_museums",Paris,FR,48.86063,2.35615,2
Palace of Justice,"architecture,historic_architecture,interesting_places,other_buildings_and_structures",Paris,FR,48.855656,2.345051,3
"10 rue Saint-Germain-l'Auxerrois, Paris","architecture,historic_architecture,interesting_places,other_buildings_and_structures",Paris,FR,48.858391,2.345437,2
Les bouquinistes de la Seine,"historic,monuments_and_memorials,burial_places,interesting_places,other_burial_places,monuments",Paris,FR,48.853321,2.35753,2
"5-7 rue Saint-Germain-l'Auxerrois, Paris","historic_architecture,architecture,interesting_places,other_buildings_and_structures",Paris,FR,48.858082,2.34525,2
"3 rue des Deux-Boules - 12-14bis rue Jean-Lantier, Paris","historic_architecture,architecture,interesting_places,other_buildings_and_structures",Paris,FR,48.85886,2.34575,2
Hôtel de Saint-Aignan,"historic,monuments_and_memorials,burial_places,interesting_places,other_burial_places,monuments",Paris,FR,48.860882,2.35554,2
Hôtel du Président Hénault,"historic_architecture,architecture,interesting_places,other_buildings_and_structures",Paris,FR,48.855263,2.35927,3
"58 rue Quincampoix, Paris","historic_architecture,architecture,interesting_places,other_buildings_and_structures",Paris,FR,48.86137,2.350764,2
Mémorial des Martyrs de la Déportation,"historic,burial_places,interesting_places,war_memorials",Paris,FR,48.851738,2.352366,3
PA_092,"historic,cultural,urban_environment,monuments_and_memorials,interesting_places,sculptures,monuments",Paris,FR,48.860298,2.3474,2
"141 rue Saint-Martin, Paris","historic_architecture,architecture,interesting_places,other_buildings_and_structures",Paris,FR,48.861454,2.351481,2
Fontaine des Innocents,"fountains,historic,monuments_and_memorials,urban_environment,cultural,interesting_places,sculptures,monuments",Paris,FR,48.860638,2.348023,3
Les Bateaux-Omnibus,"historic,monuments_and_memorials,burial_places,interesting_places,other_burial_places,monuments",Paris,FR,48.852371,2.34848,2
Sainte-Chapelle,"religion,churches,cultural,museums,interesting_places,other_museums,catholic_churches",Paris,FR,48.855392,2.344994,3
Le Grand assistant,"historic,monuments_and_memorials,urban_environment,cultural,interesting_places,installation,sculptures,monuments",Paris,FR,48.861485,2.352619,3
"6 rue des Orfèvres, Paris","historic_architecture,architecture,interesting_places,other_buildings_and_structures",Paris,FR,48.858555,2.345361,2
Saints Innocents Cemetery,"cemeteries,historic,burial_places,interesting_places",Paris,FR,48.860558,2.347778,3
église des Saints-Innocents de Paris,"religion,churches,interesting_places,other_churches",Paris,FR,48.860558,2.347778,3
cadran solaire,"sundials,other,historic,monuments_and_memorials,interesting_places,monuments",Paris,FR,48.86039,2.35697,2
Rue de la Ferronnerie,"historic,monuments_and_memorials,burial_places,interesting_places,other_burial_places,monuments",Paris,FR,48.86034,2.3473,2
PA_1213,"historic,cultural,urban_environment,monuments_and_memorials,interesting_places,sculptures,monuments",Paris,FR,48.860901,2.3485,2
hôtel de Saint-Aignan,"historic_architecture,architecture,interesting_places,other_buildings_and_structures",Paris,FR,48.861111,2.355278,3
Chapelle Saint-Éloi,"religion,churches,interesting_places,other_churches",Paris,FR,48.858501,2.34526,3
"9 rue Saint-Germain-l'Auxerrois, Paris","historic_architecture,architecture,interesting_places,other_buildings_and_structures",Paris,FR,48.858139,2.345056,2
"5 rue des Deux-Boules, Paris","historic_architecture,architecture,interesting_places,other_buildings_and_structures",Paris,FR,48.858971,2.345583,2
"4 rue Le Regrattier, Paris","historic_architecture,architecture,interesting_places,other_buildings_and_structures",Paris,FR,48.851875,2.354497,2
"6-8bis rue de la Ferronnerie - 9-13 rue des Innocents, Paris","historic_architecture,architecture,interesting_places,other_buildings_and_structures",Paris,FR,48.86039,2.347333,2
"55 rue Quincampoix, Paris","historic_architecture,architecture,interesting_places,other_buildings_and_structures",Paris,FR,48.861462,2.350622,2
MK2 Beaubourg,"cultural,cinemas,theatres_and_entertainments,interesting_places",Paris,FR,48.861572,2.352414,3
Notre-Dame,"railway_stations,industrial_facilities,religion,cathedrals,churches,interesting_places,catholic_churches",Paris,FR,48.851818,2.3501,3
Hôtel de Chenizot,"historic_architecture,architecture,interesting_places,other_buildings_and_structures",Paris,FR,48.8521,2.35544,3
Le Pletzl,"historic,monuments_and_memorials,burial_places,interesting_places,other_burial_places,monuments",Paris,FR,48.856972,2.35975,2
"7 rue des Orfèvres, Paris","historic_architecture,architecture,interesting_places,other_buildings_and_structures",Paris,FR,48.858501,2.345194,2
Hôtel Hérouet,"historic_architecture,architecture,interesting_places,other_buildings_and_structures",Paris,FR,48.858643,2.359121,3
"5 rue des Orfèvres, Paris","historic_architecture,architecture,interesting_places,other_buildings_and_structures",Paris,FR,48.858471,2.345167,2
"9 rue des Orfèvres, Paris","historic_architecture,architecture,interesting_places,other_buildings_and_structures",Paris,FR,48.858582,2.345222,2
"3 rue des Orfèvres, Paris","historic_architecture,architecture,interesting_places,other_buildings_and_structures",Paris,FR,48.858418,2.345111,2
"60 rue Quincampoix, Paris","historic_architecture,architecture,interesting_places,other_buildings_and_structures",Paris,FR,48.861538,2.350858,2
"29 rue de la Ferronnerie, Paris","historic_architecture,architecture,interesting_places,other_buildings_and_structures",Paris,FR,48.860168,2.346833,2
"57 rue Quincampoix, Paris","historic_architecture,architecture,interesting_places,other_buildings_and_structures",Paris,FR,48.861526,2.350656,2
Impasse des Arbalétriers,"historic,monuments_and_memorials,burial_places,interesting_places,other_burial_places,monuments",Paris,FR,48.858391,2.35935,2
Rivoli 59,"other,unclassified_objects,interesting_places,tourist_object",Paris,FR,48.859226,2.345657,2
"7 rue des Deux-Boules, Paris","historic_architecture,architecture,interesting_places,other_buildings_and_structures",Paris,FR,48.859028,2.345472,2
"16-18 rue Jean-Lantier, Paris","historic_architecture,architecture,interesting_places,other_buildings_and_structures",Paris,FR,48.858944,2.345361,2
"143 rue Saint-Martin - 63 rue Rambuteau, Paris","historic_architecture,architecture,interesting_places,other_buildings_and_structures",Paris,FR,48.861668,2.351667,2
"147 rue Saint-Martin, Paris","historic_architecture,architecture,interesting_places,other_buildings_and_structures",Paris,FR,48.861668,2.351667,2
Pont Marie,"bridges,architecture,interesting_places,stone_bridges",Paris,FR,48.852806,2.357358,3
Rue Saint-Antoine,"historic,monuments_and_memorials,burial_places,interesting_places,other_burial_places,monuments",Paris,FR,48.855282,2.35968,2
Pont de l'Archevêché,"bridges,architecture,interesting_places,stone_bridges",Paris,FR,48.851513,2.351555,3
"12 rue Saint-Germain-l'Auxerrois, Paris","historic_architecture,architecture,interesting_places,other_buildings_and_structures",Paris,FR,48.85836,2.344917,2
Le Pont au Double,"historic,monuments_and_memorials,burial_places,interesting_places,other_burial_places,monuments",Paris,FR,48.85228,2.34805,2
"59 rue Quincampoix, Paris","historic_architecture,architecture,interesting_places,other_buildings_and_structures",Paris,FR,48.861607,2.350633,2
jardin de l'Hôtel de Sens,"urban_environment,gardens_and_parks,cultural,interesting_places",Paris,FR,48.853703,2.358606,3
"Boutique, 79 rue Vieille-du-Temple","historic_architecture,architecture,interesting_places,other_buildings_and_structures",Paris,FR,48.858891,2.359167,2
"10 rue de la Ferronnerie - 15 rue des Innocents, Paris","historic_architecture,architecture,interesting_places,other_buildings_and_structures",Paris,FR,48.860416,2.347,2
"13 rue Saint-Germain-l'Auxerrois, Paris","historic_architecture,architecture,interesting_places,other_buildings_and_structures",Paris,FR,48.858223,2.344806,2
"62 rue Quincampoix, Paris","historic_architecture,architecture,interesting_places,other_buildings_and_structures",Paris,FR,48.861656,2.350914,2
musée d'art et d'histoire du judaïsme,"cultural,museums,interesting_places,art_galleries",Paris,FR,48.861267,2.355442,3
MIJE Fourcy,"architecture,historic_architecture,accomodations,interesting_places,hostels,other_buildings_and_structures",Paris,FR,48.854752,2.359487,3
"14 rue Saint-Germain-l'Auxerrois, Paris","historic_architecture,architecture,interesting_places,other_buildings_and_structures",Paris,FR,48.85836,2.344861,2
"145 rue Saint-Martin, Paris","historic_architecture,architecture,interesting_places,other_buildings_and_structures",Paris,FR,48.861732,2.351544,2
"9-11 rue des Deux-Boules, Paris","historic_architecture,architecture,interesting_places,other_buildings_and_structures",Paris,FR,48.859055,2.345306,2
"31 rue de la Ferronnerie, Paris","historic_architecture,architecture,interesting_places,other_buildings_and_structures",Paris,FR,48.860279,2.346667,2
"61 rue Quincampoix, Paris","historic_architecture,architecture,interesting_places,other_buildings_and_structures",Paris,FR,48.861683,2.3507,2
cadran solaire hôtel de Chenizot,"sundials,other,historic,monuments_and_memorials,interesting_places,monuments",Paris,FR,48.851833,2.355278,2
Théâtre des Déchargeurs,"cultural,theatres_and_entertainments,interesting_places,other_theatres",Paris,FR,48.85973,2.345928,3
hôtel et usine des Cendres,"industrial_facilities,factories,interesting_places",Paris,FR,48.8577,2.3599,2
"15 rue Saint-Germain-l'Auxerrois, Paris","historic_architecture,architecture,interesting_places,other_buildings_and_structures",Paris,FR,48.85825,2.344722,2
"64 rue Quincampoix, Paris","historic_architecture,architecture,interesting_places,other_buildings_and_structures",Paris,FR,48.861732,2.350956,2
Au Franc Pinot,"historic_architecture,architecture,interesting_places,other_buildings_and_structures",Paris,FR,48.852421,2.356889,2
"16 rue Saint-Germain-l'Auxerrois, Paris","historic_architecture,architecture,interesting_places,other_buildings_and_structures",Paris,FR,48.858391,2.344778,2
Musée de la Poupée,"cultural,museums,interesting_places,other_museums",Paris,FR,48.861614,2.354296,3
"14 rue Bertin-Poirée - 19 rue Jean-Lantier, Paris","historic_architecture,architecture,interesting_places,other_buildings_and_structures",Paris,FR,48.858807,2.345028,2
Hôtel de Vic,"historic_architecture,architecture,interesting_places,other_buildings_and_structures",Paris,FR,48.861217,2.355881,3
PA1200 Shakespeare,"cultural,urban_environment,interesting_places,installation",Paris,FR,48.852612,2.347071,3
Jeu de Paume,"historic,monuments_and_memorials,burial_places,interesting_places,other_burial_places,monuments",Paris,FR,48.852039,2.35608,2
Hôtel Séguier,"historic_architecture,architecture,interesting_places,other_buildings_and_structures",Paris,FR,48.855186,2.35985,2
hotel du jeu de paume,"architecture,historic_architecture,accomodations,interesting_places,other_hotels,other_buildings_and_structures",Paris,FR,48.852043,2.35614,2
Le Grenier de Notre-Dame,"religion,architecture,historic_architecture,cathedrals,churches,interesting_places,restaurants,foods,catholic_churches,tourist_facilities,other_buildings_and_structures",Paris,FR,48.851879,2.348708,3
"149 rue Saint-Martin, Paris","historic_architecture,architecture,interesting_places,other_buildings_and_structures",Paris,FR,48.861847,2.351656,2
"12-14 rue de la Ferronnerie - 17-21 rue des Innocents - 2bis rue de la Lingerie, Paris","historic_architecture,architecture,interesting_places,other_buildings_and_structures",Paris,FR,48.860474,2.34675,2
"13 rue des Deux-Boules - 18 rue Bertin-Poirée, Paris","historic_architecture,architecture,interesting_places,other_buildings_and_structures",Paris,FR,48.859138,2.345139,2
Hôtel de Sens,"fortifications,historic,interesting_places,castles",Paris,FR,48.853523,2.358752,3
Le Petit Pont,"bridges,architecture,interesting_places,stone_bridges,restaurants,foods,tourist_facilities",Paris,FR,48.852684,2.34677,3
La Bouteille d'Or,"architecture,historic_architecture,interesting_places,restaurants,foods,tourist_facilities,other_buildings_and_structures",Paris,FR,48.851555,2.349681,2
"66 rue Quincampoix - 62 rue Rambuteau, Paris","historic_architecture,architecture,interesting_places,other_buildings_and_structures",Paris,FR,48.861862,2.351007,2
hôtel Le Lièvre,"historic_architecture,architecture,interesting_places,other_buildings_and_structures",Paris,FR,48.860928,2.356924,2
"8 rue de Braque, Paris","historic_architecture,architecture,interesting_places,other_buildings_and_structures",Paris,FR,48.861061,2.356642,2
hôtel d'Almeyras,"historic_architecture,architecture,interesting_places,other_buildings_and_structures",Paris,FR,48.858093,2.359986,3
Enceinte de Philippe-Auguste,"fortifications,defensive_walls,historic,interesting_places",Paris,FR,48.857075,2.360277,2
Tour de guet (enceinte Louis-Philippe),"architecture,historic_architecture,fortifications,historic,interesting_places,destroyed_objects,other_fortifications",Paris,FR,48.857059,2.360283,2
Forum des Halles Porte M. de Navarre,"architecture,historic_architecture,interesting_places,shops,malls,tourist_facilities,other_buildings_and_structures",Paris,FR,48.860317,2.346374,3
Centre Culturel Suisse,"cultural,museums,interesting_places,other_museums",Paris,FR,48.858528,2.359768,3
Hôtel d'Almeras,"historic,monuments_and_memorials,burial_places,interesting_places,other_burial_places,monuments",Paris,FR,48.858089,2.36,2
Jardin Roger Priou-Valjean,"urban_environment,gardens_and_parks,cultural,interesting_places",Paris,FR,48.853947,2.359256,3
Hôtel de Soubise,"architecture,historic_architecture,interesting_places,other_buildings_and_structures",Paris,FR,48.860397,2.35793,3
"18 rue Saint-Germain-l'Auxerrois, Paris","historic_architecture,architecture,interesting_places,other_buildings_and_structures",Paris,FR,48.858444,2.344556,2
Khatag,"architecture,historic_architecture,interesting_places,restaurants,foods,tourist_facilities,other_buildings_and_structures",Paris,FR,48.861912,2.350995,2
"151 rue Saint-Martin, Paris","historic_architecture,architecture,interesting_places,other_buildings_and_structures",Paris,FR,48.861965,2.35167,2
"160 rue Saint-Martin, Paris","historic_architecture,architecture,interesting_places,other_buildings_and_structures",Paris,FR,48.861973,2.351938,2
"42 quai des Célestins, Paris","historic_architecture,architecture,interesting_places,other_buildings_and_structures",Paris,FR,48.853252,2.358606,2
Hôtel de Montmor,"historic,monuments_and_memorials,burial_places,interesting_places,other_burial_places,monuments",Paris,FR,48.86132,2.356146,2
Jardin Anne Frank,"urban_environment,gardens_and_parks,cultural,interesting_places",Paris,FR,48.861652,2.355053,3
Le Montebello,"architecture,historic_architecture,interesting_places,restaurants,foods,tourist_facilities,other_buildings_and_structures",Paris,FR,48.851402,2.350015,2
Maison des Étudiants,"historic,historical_places,interesting_places,historic_settlements",Paris,FR,48.851799,2.348449,2
"65 rue Quincampoix - 64 rue Rambuteau, Paris","historic_architecture,architecture,interesting_places,other_buildings_and_structures",Paris,FR,48.861935,2.350846,2
Square Restif de la Bretonne,"urban_environment,gardens_and_parks,cultural,interesting_places",Paris,FR,48.851532,2.349316,3
Promenade des Berges de la Seine,"gardens_and_parks,cultural,urban_environment,interesting_places",Paris,FR,48.857777,2.344167,3
"14 quai de la Mégisserie, Paris","historic_architecture,architecture,interesting_places,other_buildings_and_structures",Paris,FR,48.858166,2.344306,2
"70 rue Quincampoix, Paris","historic_architecture,architecture,interesting_places,other_buildings_and_structures",Paris,FR,48.861973,2.351053,2
Square René-Viviani,"urban_environment,gardens_and_parks,cultural,interesting_places",Paris,FR,48.852123,2.347539,3
Caveau de la Huchette,"nightclubs,cultural,theatres_and_entertainments,interesting_places,adult,music_venues,foods,bars,tourist_facilities",Paris,FR,48.852798,2.346308,3
"20-22 rue Saint-Germain-l'Auxerrois, Paris","historic_architecture,architecture,interesting_places,other_buildings_and_structures",Paris,FR,48.858471,2.344444,2
jardin des Rosiers – Joseph-Migneret,"urban_environment,gardens_and_parks,cultural,interesting_places",Paris,FR,48.857285,2.360404,3
hôtel de Montmor,"historic_architecture,architecture,interesting_places,other_buildings_and_structures",Paris,FR,48.86142,2.356052,3
Jardin des Archives Nationales,"cultural,museums,interesting_places,other_museums",Paris,FR,48.85997,2.358702,3
Hôtel de Coulanges,"historic_architecture,architecture,interesting_places,other_buildings_and_structures",Paris,FR,48.8578,2.36028,3
"72 rue Quincampoix, Paris","historic_architecture,architecture,interesting_places,other_buildings_and_structures",Paris,FR,48.862007,2.351063,2
PA_394,"historic,cultural,urban_environment,monuments_and_memorials,interesting_places,sculptures,monuments",Paris,FR,48.854401,2.3446,2
Hôtel de Clisson,"historic_architecture,architecture,interesting_places,other_buildings_and_structures",Paris,FR,48.8606,2.35786,3
Rue Saint-Louis-en-l'Île,"cultural,theatres_and_entertainments,interesting_places,other_theatres",Paris,FR,48.852291,2.357315,3
Robinier du Square Viviani,"other,unclassified_objects,interesting_places,tourist_object",Paris,FR,48.852184,2.34729,2
"24 rue Saint-Germain-l'Auxerrois, Paris","historic_architecture,architecture,interesting_places,other_buildings_and_structures",Paris,FR,48.858501,2.344389,2
"Hôtel de Villeroy (Paris, 1st arrondissement)","historic_architecture,architecture,interesting_places,other_buildings_and_structures",Paris,FR,48.8601,2.34578,3
Gassendi,"historic,monuments_and_memorials,burial_places,interesting_places,other_burial_places,monuments",Paris,FR,48.861401,2.35625,2
"7 rue Bertin-Poirée, Paris","historic_architecture,architecture,interesting_places,other_buildings_and_structures",Paris,FR,48.859249,2.344889,2
"35 rue Saint-Louis-en-l'Île - 21 rue des Deux-Ponts, Paris","historic_architecture,architecture,interesting_places,other_buildings_and_structures",Paris,FR,48.851818,2.356342,2
Le Relais de la Huchette,"nightclubs,cultural,theatres_and_entertainments,interesting_places,adult,music_venues,foods,bars,tourist_facilities",Paris,FR,48.852955,2.345923,3
"67 rue Quincampoix, Paris","historic_architecture,architecture,interesting_places,other_buildings_and_structures",Paris,FR,48.862045,2.350911,2
"69 rue Quincampoix, Paris","historic_architecture,architecture,interesting_places,other_buildings_and_structures",Paris,FR,48.862064,2.350911,2
"71 rue Quincampoix, Paris","historic_architecture,architecture,interesting_places,other_buildings_and_structures",Paris,FR,48.862076,2.350966,2
porte Marguerite de Navarre,"fortifications,historic,defensive_walls,interesting_places",Paris,FR,48.860561,2.34632,3
"155 rue Saint-Martin, Paris","historic_architecture,architecture,interesting_places,other_buildings_and_structures",Paris,FR,48.862141,2.35178,2
Hôtel d'Arvers,"historic_architecture,architecture,interesting_places,other_buildings_and_structures",Paris,FR,48.851398,2.35519,3
"1-3 rue des Grands-Degrés - 2 rue Maître-Albert, Paris","historic_architecture,architecture,interesting_places,other_buildings_and_structures",Paris,FR,48.851223,2.35,2
Archives Nationales,"other,unclassified_objects,interesting_places,tourist_object",Paris,FR,48.860291,2.358566,3
PA874 panneau rue de la huchette,"historic,monuments_and_memorials,burial_places,urban_environment,cultural,interesting_places,installation,other_burial_places,monuments",Paris,FR,48.853035,2.345665,2
"73 rue Quincampoix, Paris","historic_architecture,architecture,interesting_places,other_buildings_and_structures",Paris,FR,48.862137,2.350998,2
Rue Saint-Louis-en-l'Île,"cultural,theatres_and_entertainments,interesting_places,other_theatres",Paris,FR,48.852009,2.35708,3
hôtel de Laffemas,"historic_architecture,architecture,interesting_places,other_buildings_and_structures",Paris,FR,48.85228,2.346778,2
Synagogue,"religion,synagogues,interesting_places",Paris,FR,48.855938,2.360662,3
Hôtel de Laffemas,"historic,monuments_and_memorials,burial_places,interesting_places,other_burial_places,monuments",Paris,FR,48.85223,2.34685,2
Théâtre Molière,"theatres_and_entertainments,cultural,interesting_places,other_theatres",Paris,FR,48.862209,2.35183,2
"26-30 rue Saint-Germain-l'Auxerrois, Paris","historic_architecture,architecture,interesting_places,other_buildings_and_structures",Paris,FR,48.858555,2.344194,2
"78 rue Quincampoix, Paris","historic_architecture,architecture,interesting_places,other_buildings_and_structures",Paris,FR,48.862179,2.351147,2
Hôtel Mortier de Sandreville,"historic,monuments_and_memorials,burial_places,interesting_places,other_burial_places,monuments",Paris,FR,48.8578,2.36055,2
Hôtel Mortier de Sandreville,"historic_architecture,architecture,interesting_places,other_buildings_and_structures",Paris,FR,48.857864,2.360537,3
Pont Saint-Michel,"bridges,architecture,interesting_places,stone_bridges",Paris,FR,48.854031,2.344575,3
Hôtel de Sens,"historic,monuments_and_memorials,burial_places,interesting_places,other_burial_places,monuments",Paris,FR,48.853371,2.35923,2
Saint-Julien-le-Pauvre,"religion,churches,interesting_places,catholic_churches",Paris,FR,48.852047,2.347134,3
Église Saint-Blaise de Paris,"religion,churches,interesting_places,other_churches",Paris,FR,48.852055,2.347111,2
"immeuble, 75 rue Quincampoix","historic_architecture,architecture,interesting_places,other_buildings_and_structures",Paris,FR,48.862194,2.351015,2
Le Défenseur du temps,"historic,monuments_and_memorials,urban_environment,cultural,interesting_places,sculptures,monuments",Paris,FR,48.862263,2.352696,3
"24 rue des Bourdonnais, Paris","historic_architecture,architecture,interesting_places,other_buildings_and_structures",Paris,FR,48.859402,2.3447,2
"77 rue Quincampoix, Paris","historic_architecture,architecture,interesting_places,other_buildings_and_structures",Paris,FR,48.862225,2.351034,2
Hôtel de Nesmond,"historic,monuments_and_memorials,burial_places,interesting_places,other_burial_places,monuments",Paris,FR,48.850941,2.35144,2
Église Saint-Julien-le-Pauvre,"historic,monuments_and_memorials,burial_places,interesting_places,other_burial_places,monuments",Paris,FR,48.852131,2.34686,2
Saint-Michel,"railway_stations,industrial_facilities,architecture,historic_architecture,interesting_places,restaurants,foods,tourist_facilities,other_buildings_and_structures",Paris,FR,48.853096,2.345377,3
Adam Mickiewicz Museum,"cultural,museums,interesting_places,other_museums",Paris,FR,48.851349,2.355588,3
Hôtel Lemarié d'Aubigny,"historic_architecture,architecture,interesting_places,other_buildings_and_structures",Paris,FR,48.859051,2.360041,2
passage Molière,"cultural,urban_environment,interesting_places,squares",Paris,FR,48.862301,2.35152,3
,"architecture,historic_architecture,interesting_places,other_buildings_and_structures",Paris,FR,48.860779,2.358146,3
Le Colbert,"architecture,historic_architecture,accomodations,interesting_places,other_hotels,other_buildings_and_structures",Paris,FR,48.851471,2.348331,3
"79 rue Quincampoix, Paris","historic_architecture,architecture,interesting_places,other_buildings_and_structures",Paris,FR,48.862278,2.351058,2
"immeuble, 6 quai d'Orléans","historic_architecture,architecture,interesting_places,other_buildings_and_structures",Paris,FR,48.851337,2.355656,2
Museum of French History,"museums,cultural,interesting_places,other_museums",Paris,FR,48.859638,2.359593,3
"22 rue des Bourdonnais, Paris","historic_architecture,architecture,interesting_places,other_buildings_and_structures",Paris,FR,48.859299,2.3445,2
Théâtre de la Huchette,"cultural,theatres_and_entertainments,interesting_places,other_theatres",Paris,FR,48.85302,2.345377,3
Musée Boleslas Biegas,"cultural,museums,interesting_places,other_museums",Paris,FR,48.851315,2.35562,3
Aux Trois Mailletz,"nightclubs,cultural,theatres_and_entertainments,interesting_places,adult,music_venues,foods,bars,tourist_facilities",Paris,FR,48.85218,2.346611,3
Salon Frédéric Chopin,"museums,cultural,interesting_places,other_museums",Paris,FR,48.851307,2.355639,3
Galerie Mailletz,"nightclubs,cultural,museums,theatres_and_entertainments,interesting_places,adult,music_venues,foods,bars,art_galleries,tourist_facilities",Paris,FR,48.852219,2.346521,3
Maison du Temple,"religion,architecture,historic_architecture,other_temples,interesting_places,manor_houses",Paris,FR,48.86161,2.35657,3
Hôtel Jeanne d'Albret,"historic_architecture,architecture,interesting_places,other_buildings_and_structures",Paris,FR,48.857536,2.360867,3
Polish Library in Paris,"museums,cultural,interesting_places,other_museums",Paris,FR,48.851299,2.3557,3
Rue Galande,"historic,monuments_and_memorials,burial_places,interesting_places,other_burial_places,monuments",Paris,FR,48.852211,2.34645,2
"6 rue du Fouarre, Paris","historic_architecture,architecture,interesting_places,other_buildings_and_structures",Paris,FR,48.851723,2.347444,2
Hôtel de Rohan,"historic_architecture,architecture,interesting_places,other_buildings_and_structures",Paris,FR,48.859722,2.359639,3
"163 rue Saint-Martin, Paris","historic_architecture,architecture,interesting_places,other_buildings_and_structures",Paris,FR,48.862408,2.351938,2
Hôtel du 29 rue Saint-Louis-en-l'Île,"historic_architecture,architecture,interesting_places,other_buildings_and_structures",Paris,FR,48.851643,2.356803,2
"165 rue Saint-Martin, Paris","historic_architecture,architecture,interesting_places,other_buildings_and_structures",Paris,FR,48.862415,2.351949,2
Hôtel de Nesmond,"historic_architecture,architecture,interesting_places,other_buildings_and_structures",Paris,FR,48.8508,2.35138,3
"6 rue Frédéric-Sauton, Paris","historic_architecture,architecture,interesting_places,other_buildings_and_structures",Paris,FR,48.851112,2.349167,2
Professed House,"religion,monasteries,interesting_places",Paris,FR,48.854168,2.360278,3
Fountain of the Naiads,"fountains,historic,monuments_and_memorials,urban_environment,cultural,interesting_places,sculptures,monuments",Rome,IT,41.902714,12.496246,3
Basilica di Santa Maria degli Angeli e dei Martiri,"religion,churches,interesting_places,catholic_churches",Rome,IT,41.903423,12.497331,3
Obelisco dei Dogali,"historic,monuments_and_memorials,urban_environment,cultural,interesting_places,sculptures,monuments",Rome,IT,41.902145,12.497461,3
Colonna romana con nave,"historic,monuments_and_memorials,burial_places,urban_environment,cultural,interesting_places,other_burial_places,sculptures,monuments",Rome,IT,41.90374,12.495558,2
Chiesa di Sant'Isidoro alle Terme,"religion,architecture,historic_architecture,churches,interesting_places,destroyed_objects,catholic_churches",Rome,IT,41.903999,12.496133,3
Palazzo Nathan,"palaces,architecture,historic_architecture,interesting_places",Rome,IT,41.901695,12.495639,2
Baths of Diocletian,"architecture,historic_architecture,historic,archaeology,interesting_places,baths_and_saunas,saunas,other_archaeological_sites,amusements,other_buildings_and_structures",Rome,IT,41.903667,12.497853,3
San Bernardo alle Terme,"religion,churches,interesting_places,catholic_churches",Rome,IT,41.903587,12.494525,3
Palazzo Massimo alle Terme,"palaces,architecture,historic_architecture,interesting_places",Rome,IT,41.901768,12.498087,3
Baths of Diocletian,"architecture,historic,archaeology,museums,saunas,other_museums,other_archaeological_sites,amusements,historic_architecture,cultural,interesting_places,baths_and_saunas,other_buildings_and_structures",Rome,IT,41.903782,12.498211,3
Terme di Diocleziano,"architecture,historic,archaeology,saunas,other_archaeological_sites,amusements,restaurants,tourist_facilities,historic_architecture,interesting_places,baths_and_saunas,foods,other_buildings_and_structures",Rome,IT,41.901154,12.497066,3
chiesa di San Ciriaco alle Terme di Diocleziano,"religion,churches,interesting_places,other_churches",Rome,IT,41.904724,12.497084,2
Teatro dell'Opera,"cultural,theatres_and_entertainments,interesting_places,other_theatres",Rome,IT,41.900928,12.495469,3
Museum of the Baths of Diocletian,"museums,cultural,interesting_places,other_museums",Rome,IT,41.903873,12.498708,3
Museo Nazionale Romano,"national_museums,museums,cultural,interesting_places",Rome,IT,41.901253,12.498295,3
Monumento a Giovanni Paolo II,"historic,monuments_and_memorials,cultural,urban_environment,interesting_places,sculptures,monuments",Rome,IT,41.901997,12.499013,2
Fountain of Moses,"fountains,historic,monuments_and_memorials,urban_environment,cultural,interesting_places,sculptures,monuments",Rome,IT,41.904392,12.494452,3
Palazzo Massimo alle Terme,"cultural,museums,interesting_places,art_galleries",Rome,IT,41.901314,12.498656,3
St. Paul's Within the Walls,"religion,churches,interesting_places,other_churches",Rome,IT,41.901062,12.494262,3
Horti Lolliani,"historic,archaeology,interesting_places,other_archaeological_sites",Rome,IT,41.900696,12.497861,2
Cornaro chapel,"religion,churches,interesting_places,other_churches",Rome,IT,41.904682,12.494227,3
Santa Susanna alle Terme di Diocleziano,"religion,churches,interesting_places,catholic_churches",Rome,IT,41.904289,12.493668,3
Santa Maria della Vittoria,"religion,churches,interesting_places,catholic_churches",Rome,IT,41.90472,12.494189,3
Ecstasy of Saint Teresa,"historic,cultural,urban_environment,monuments_and_memorials,interesting_places,sculptures,monuments",Rome,IT,41.904724,12.494166,3
chiesa evangelica metodista in Castro Pretorio,"religion,churches,interesting_places,other_churches",Rome,IT,41.903431,12.492951,2
Resti di Mura Serviane,"architecture,historic_architecture,fortifications,defensive_walls,historic,archaeology,interesting_places,destroyed_objects,other_archaeological_sites",Rome,IT,41.904819,12.493714,3
Resti di Mura Serviane,"fortifications,defensive_walls,historic,archaeology,interesting_places,other_archaeological_sites",Rome,IT,41.903484,12.500174,3
Palazzo dell'Agricoltura,"palaces,architecture,historic_architecture,interesting_places",Rome,IT,41.905426,12.494462,3
Palazzo Baracchini (Rome),"palaces,architecture,historic_architecture,interesting_places",Rome,IT,41.903339,12.492239,3
San Norberto all'Esquilino,"religion,churches,interesting_places,other_churches",Rome,IT,41.900002,12.494306,3
Enrico Fermi Center for Study and Research,"museums,cultural,interesting_places,other_museums",Rome,IT,41.900032,12.493854,2
Santa Maria della Sanità,"religion,churches,interesting_places,other_churches",Rome,IT,41.899666,12.494611,3
Fontana di piazza del Viminale,"fountains,historic,monuments_and_memorials,urban_environment,cultural,interesting_places,sculptures,monuments",Rome,IT,41.899807,12.494197,3
Servian Wall,"architecture,historic_architecture,fortifications,defensive_walls,historic,archaeology,interesting_places,destroyed_objects,other_archaeological_sites",Rome,IT,41.902664,12.501071,3
Santa Teresa alle Quattro Fontane,"religion,churches,interesting_places,other_churches",Rome,IT,41.90239,12.491722,3
Servian Wall,"architecture,historic_architecture,fortifications,defensive_walls,historic,archaeology,interesting_places,destroyed_objects,other_archaeological_sites",Rome,IT,41.902454,12.501099,3
Porta Viminale,"fortifications,historic,defensive_walls,interesting_places",Rome,IT,41.9025,12.501111,3
Saint Andrew's Presbyterian Church of Scotland,"religion,churches,interesting_places,other_churches",Rome,IT,41.903061,12.491675,3
Servian Wall,"architecture,historic_architecture,fortifications,defensive_walls,historic,archaeology,interesting_places,destroyed_objects,other_archaeological_sites",Rome,IT,41.902336,12.501159,3
Piazza del Viminale,"fountains,historic,monuments_and_memorials,urban_environment,cultural,interesting_places,sculptures,monuments",Rome,IT,41.899662,12.494015,3
Servian Wall,"fortifications,defensive_walls,historic,archaeology,interesting_places,other_archaeological_sites",Rome,IT,41.906223,12.494382,3
Quintino Sella,"historic,monuments_and_memorials,urban_environment,cultural,interesting_places,sculptures,monuments",Rome,IT,41.905964,12.499224,2
Palazzo delle Finanze,"palaces,architecture,historic_architecture,interesting_places",Rome,IT,41.906387,12.498096,3
Sack of Rome,"battlefields,historic,historical_places,interesting_places",Rome,IT,41.900002,12.5,3
Servian Wall,"fortifications,defensive_walls,historic,archaeology,interesting_places,other_archaeological_sites",Rome,IT,41.906376,12.494311,3
Giardini di Palazzo Barberini,"palaces,architecture,historic_architecture,urban_environment,gardens_and_parks,cultural,museums,interesting_places,art_galleries",Rome,IT,41.903114,12.491071,3
Servian Wall,"fortifications,defensive_walls,historic,archaeology,interesting_places,other_archaeological_sites",Rome,IT,41.901775,12.501742,3
Palazzo del Viminale,"palaces,architecture,historic_architecture,interesting_places",Rome,IT,41.8992,12.4935,3
Collegium Germanicum et Hungaricum,"religion,other_temples,interesting_places",Rome,IT,41.904984,12.491535,2
Quattro Fontane,"fountains,historic,monuments_and_memorials,urban_environment,cultural,interesting_places,sculptures,monuments",Rome,IT,41.90197,12.490739,3
San Carlo alle Quattro Fontane,"religion,churches,interesting_places,catholic_churches",Rome,IT,41.901737,12.490792,3
Temple of the gens Flavia,"religion,other_temples,historic,archaeology,interesting_places,other_archaeological_sites",Rome,IT,41.901901,12.4907,3
Capitolium Vetus,"religion,other_temples,interesting_places",Rome,IT,41.902065,12.490625,2
San Nicola da Tolentino,"religion,churches,interesting_places,other_churches",Rome,IT,41.90522,12.491476,3
Basilica di Santa Pudenziana al Viminale,"religion,churches,interesting_places,catholic_churches",Rome,IT,41.898449,12.495467,3
San Luca all'Esquilino,"religion,churches,interesting_places,other_churches",Rome,IT,41.898529,12.498,3
"Palazzo Leoni, Bologna","historic_architecture,architecture,interesting_places,other_buildings_and_structures",Rome,IT,41.901356,12.50206,3
Pontificio Collegio Armeno,"religion,other_temples,interesting_places",Rome,IT,41.905109,12.49125,2
San Camillo de Lellis,"religion,churches,interesting_places,catholic_churches",Rome,IT,41.907036,12.49435,3
Temple of Quirinus,"religion,other_temples,historic,archaeology,interesting_places,other_archaeological_sites",Rome,IT,41.901974,12.490431,2
Santi Gioacchino e Anna alle Quattro Fontane,"religion,churches,interesting_places,catholic_churches",Rome,IT,41.901566,12.490555,3
chiesa di S. Nicola da Tolentino,"religion,churches,interesting_places,other_churches",Rome,IT,41.904831,12.490884,2
Sacro Cuore di Gesù a Castro Pretorio,"religion,churches,interesting_places,catholic_churches",Rome,IT,41.902706,12.50259,3
Istituto italiano di numismatica,"other,unclassified_objects,interesting_places,tourist_object",Rome,IT,41.903111,12.490172,2
Bust of Antonio Barberini,"historic,cultural,urban_environment,monuments_and_memorials,interesting_places,sculptures,monuments",Rome,IT,41.903515,12.490209,3
Obelisco Esquilino,"historic,monuments_and_memorials,urban_environment,cultural,interesting_places,sculptures,monuments",Rome,IT,41.898174,12.497499,3
Battle of the Colline Gate,"battlefields,historic,historical_places,interesting_places",Rome,IT,41.907223,12.498611,3
Palazzo Barberini,"palaces,architecture,historic_architecture,cultural,museums,interesting_places,art_galleries",Rome,IT,41.903496,12.490121,3
Porta Collina,"fortifications,historic,defensive_walls,interesting_places",Rome,IT,41.907299,12.4986,2
Porta Quirinalis,"fortifications,historic,defensive_walls,interesting_places",Rome,IT,41.902401,12.4899,2
National Gallery of Ancient Art,"national_museums,cultural,museums,interesting_places,art_galleries",Rome,IT,41.903324,12.489875,3
Gesù Bambino all'Esquilino,"religion,churches,interesting_places,catholic_churches",Rome,IT,41.897911,12.495872,3
San Caio,"religion,churches,interesting_places,other_churches",Rome,IT,41.90675,12.500389,3
Our Lady of the Rosary and Saint Peter Chanel,"religion,churches,interesting_places,other_churches",Rome,IT,41.906818,12.500281,3
Palazzo Barberini Mithraeum,"religion,other_temples,historic,archaeology,interesting_places,other_archaeological_sites",Rome,IT,41.903091,12.48975,3
Chiesa evangelica battista ai Monti,"religion,churches,interesting_places,other_churches",Rome,IT,41.897812,12.495237,3
Palazzo Giorgioli,"palaces,architecture,historic_architecture,interesting_places",Rome,IT,41.89761,12.496555,3
Santi Vitale e Compagni Martiri in Fovea,"religion,churches,interesting_places,catholic_churches",Rome,IT,41.89975,12.49067,3
Horti Sallustiani,"historic,urban_environment,gardens_and_parks,archaeology,cultural,interesting_places,other_archaeological_sites",Rome,IT,41.908054,12.496905,3
San Basilio agli Orti Sallustiani,"religion,churches,interesting_places,catholic_churches",Rome,IT,41.904896,12.489886,3
Basilica of Saint Mary Major,"religion,churches,interesting_places,catholic_churches",Rome,IT,41.897625,12.49847,3
Barberini,"cultural,cinemas,theatres_and_entertainments,interesting_places",Rome,IT,41.903572,12.489147,2
The Parting of Lot and Abraham (Santa Maria Maggiore),"historic,cultural,urban_environment,monuments_and_memorials,interesting_places,sculptures,monuments",Rome,IT,41.897499,12.498611,3
Chiesa di Sant'Andrea al Quirinale,"religion,churches,interesting_places,catholic_churches",Rome,IT,41.900673,12.489352,3
The 2 Columns,"historic,monuments_and_memorials,burial_places,urban_environment,cultural,interesting_places,other_burial_places,restaurants,foods,sculptures,monuments,tourist_facilities",Rome,IT,41.897217,12.497815,3
Palazzo delle Esposizioni,"cultural,museums,interesting_places,art_galleries",Rome,IT,41.899658,12.490032,3
Sacro Cuore di Gesù,"religion,churches,interesting_places,catholic_churches",Rome,IT,41.908165,12.499115,3
Pontificio Seminario Lombardo,"religion,other_temples,interesting_places",Rome,IT,41.897594,12.499692,2
Sant'Andrea degli Scozzesi,"religion,churches,interesting_places,other_churches",Rome,IT,41.903,12.488611,3
Fontana del Tritone di palazzo Margherita,"fountains,palaces,architecture,historic_architecture,urban_environment,cultural,interesting_places",Rome,IT,41.907127,12.491109,3
Fountain of the Bees,"fountains,historic,monuments_and_memorials,urban_environment,cultural,interesting_places,sculptures,monuments",Rome,IT,41.904297,12.488767,3
San Lorenzo in Panisperna,"religion,churches,interesting_places,catholic_churches",Rome,IT,41.897411,12.493241,3
U.S. Mission to the UN Agencies in Rome,"architecture,historic_architecture,interesting_places,manor_houses",Rome,IT,41.90757,12.49169,2
Boncompagni Ludovisi Decorative Art Museum,"cultural,museums,interesting_places,other_museums",Rome,IT,41.908676,12.49515,3
Triton Fountain,"fountains,historic,monuments_and_memorials,urban_environment,cultural,interesting_places,sculptures,monuments",Rome,IT,41.903664,12.488482,3
chiesa delle Ancelle del Sacro Cuore,"religion,churches,interesting_places,other_churches",Rome,IT,41.908688,12.498562,2
Fontana di piazza Santa Maria Maggiore,"fountains,historic,monuments_and_memorials,urban_environment,cultural,interesting_places,sculptures,monuments",Rome,IT,41.89706,12.499331,3
Museum and crypt of Capuchin Monks,"religion,churches,cultural,museums,interesting_places,history_museums,other_churches",Rome,IT,41.904789,12.488585,3
Colonna della Pace a Santa Maria Maggiore,"fountains,historic,monuments_and_memorials,urban_environment,cultural,interesting_places,sculptures,monuments",Rome,IT,41.897022,12.499387,3
Santa Maria Immacolata a Via Veneto,"religion,churches,interesting_places,catholic_churches",Rome,IT,41.905025,12.488615,3
"Museum of Central Institute for Archives and Book Pathology ""Alfonso Gallo""","cultural,museums,interesting_places,other_museums",Rome,IT,41.897781,12.491387,3
Palazzo Piacentini,"palaces,architecture,historic_architecture,interesting_places",Rome,IT,41.905499,12.488639,3
Chiesa di San Patrizio a Villa Ludovisi,"religion,churches,interesting_places,catholic_churches",Rome,IT,41.908646,12.492898,3
Chiesa di Sant'Antonio Abate all'Esquilino,"religion,churches,interesting_places,catholic_churches",Rome,IT,41.897091,12.500494,3
Palazzo Brancaccio,"palaces,architecture,historic_architecture,interesting_places",Rome,IT,41.896687,12.499264,3
Santa Maria Maddalena al Quirinale,"religion,churches,interesting_places,other_churches",Rome,IT,41.900047,12.488427,3
Mura Serviane,"fortifications,defensive_walls,historic,archaeology,interesting_places,other_archaeological_sites",Rome,IT,41.89793,12.50228,3
Sant'Andrea Catabarbara,"religion,churches,interesting_places,other_churches",Rome,IT,41.896973,12.500417,2
sacello di San Zenone,"religion,churches,interesting_places,other_churches",Rome,IT,41.896435,12.498647,3
Istituto Centrale per la Patologia degli Archivi e del Libro,"other,unclassified_objects,interesting_places,historic_object",Rome,IT,41.896858,12.492531,2
Chiesa di San Nicola,"religion,churches,interesting_places,eastern_orthodox_churches",Rome,IT,41.904022,12.505161,3
Palazzo Cimarra,"palaces,architecture,historic_architecture,interesting_places",Rome,IT,41.89661,12.493111,3
Collegium Russicum,"religion,other_temples,interesting_places",Rome,IT,41.896889,12.500556,3
San Lorenzo da Brindisi,"religion,churches,interesting_places,other_churches",Rome,IT,41.909443,12.495361,3
Sant'Agnese ad Duo Furna,"religion,churches,interesting_places,other_churches",Rome,IT,41.896362,12.498861,3
Giardini del Quirinale,"cultural,museums,interesting_places,other_museums",Rome,IT,41.901188,12.487636,3
Santa Maria Annunziata delle Turchine,"religion,churches,interesting_places,other_churches",Rome,IT,41.896072,12.49581,3
Palazzo Passarini Falletti,"palaces,architecture,historic_architecture,interesting_places",Rome,IT,41.896721,12.49248,3
Santa Maria della Neve dei Foglianti,"religion,churches,interesting_places,other_churches",Rome,IT,41.902557,12.487333,3
Basilica di Santa Prassede,"religion,churches,interesting_places,catholic_churches",Rome,IT,41.896244,12.498672,3
Equestrian statue of Carlo Alberto,"historic,cultural,urban_environment,monuments_and_memorials,interesting_places,sculptures,monuments",Rome,IT,41.8997,12.4883,2
Villa Carlo Alberto al Quirinale,"cultural,museums,interesting_places,other_museums",Rome,IT,41.899651,12.48833,3
Gardens of Lucullus,"settlements,historic,archaeology,interesting_places,roman_villas",Rome,IT,41.906502,12.4887,2
San Giuseppe Calasanzio,"religion,churches,interesting_places,other_churches",Rome,IT,41.908337,12.491024,3
Museo storico della didattica Mauro Laeng,"museums,cultural,interesting_places,other_museums",Rome,IT,41.901714,12.505463,2
castro pretorio,"campsites,guest_houses,historic,accomodations,fortifications,archaeology,interesting_places,other_fortifications,other_archaeological_sites",Rome,IT,41.905651,12.504752,3
Santi Ildefonso e Tommaso da Villanova (Rome),"religion,churches,interesting_places,catholic_churches",Rome,IT,41.903778,12.487252,3
Casino di Villa Sforza,"religion,churches,monasteries,interesting_places,other_churches",Rome,IT,41.895916,12.496305,3
Bust of Giovanni Battista Santoni,"historic,cultural,urban_environment,monuments_and_memorials,interesting_places,sculptures,monuments",Rome,IT,41.896111,12.498611,3
Palazzo del Tritone,"palaces,architecture,historic_architecture,interesting_places",Rome,IT,41.903252,12.48715,3
Santissimo Redentore e Santa Francesca Saverio Cabrini,"religion,churches,interesting_places,catholic_churches",Rome,IT,41.909786,12.496498,3
Casa dell'Architettura,"palaces,architecture,historic_architecture,aquariums,cultural,museums,interesting_places",Rome,IT,41.897713,12.502917,3
Chiesa evangelica luterana,"religion,churches,interesting_places,other_churches",Rome,IT,41.908974,12.491706,3
Porta Nomentana,"fortifications,defensive_walls,historic,interesting_places",Rome,IT,41.908604,12.502075,3
Temple of Venus Erycina,"historic,archaeology,interesting_places,other_archaeological_sites",Rome,IT,41.909977,12.496506,3
Teatro Sistina,"cultural,cinemas,theatres_and_entertainments,interesting_places",Rome,IT,41.904221,12.486885,3
Porta Pia,"fortifications,defensive_walls,historic,archaeology,interesting_places,other_archaeological_sites",Rome,IT,41.909203,12.500993,3
Santa Francesca Romana a Strada Felice,"religion,churches,interesting_places,other_churches",Rome,IT,41.904305,12.486833,3
Museo Storico dei Bersaglieri,"cultural,museums,interesting_places,history_museums",Rome,IT,41.909267,12.501079,3
Santa Chiara al Quirinale,"religion,churches,interesting_places,other_churches",Rome,IT,41.899578,12.487498,3
Chiesa di San Lorenzo in Fonte,"religion,churches,interesting_places,catholic_churches",Rome,IT,41.895649,12.493753,3
Santa Maria della Riforma,"religion,churches,interesting_places,other_churches",Rome,IT,41.899223,12.487583,2
Porta Pia,"fortifications,defensive_walls,historic,interesting_places",Rome,IT,41.909317,12.501321,3
Oratorio di Santa Maria Immacolata della Concezione,"religion,churches,interesting_places,catholic_churches",Rome,IT,41.895943,12.50049,3
Biblioteca Nazionale Centrale di Roma,"other,unclassified_objects,interesting_places,historic_object",Rome,IT,41.906784,12.504962,3
Sant'Andrea de Fractis,"religion,churches,interesting_places,other_churches",Rome,IT,41.895916,12.5005,3
Teatro Eliseo,"cultural,theatres_and_entertainments,interesting_places,other_theatres",Rome,IT,41.897976,12.488589,3
Cappella Corpus Christi della Curia generalizia dei Cappucci,"religion,churches,interesting_places,other_churches",Rome,IT,41.90987,12.492554,3
Torre dei Graziani,"architecture,towers,interesting_places,other_towers",Rome,IT,41.895184,12.497011,3
Sant’Isidoro a Capo le Case,"religion,churches,interesting_places,catholic_churches",Rome,IT,41.906006,12.487066,3
Biblioteca medica statale Rome,"other,unclassified_objects,interesting_places,historic_object",Rome,IT,41.906284,12.505559,3
Chiesa di Santa Maria Regina dei Cuori,"religion,churches,interesting_places,catholic_churches",Rome,IT,41.91024,12.493944,3
Chiesa di Sant'Alfonso dei Liguori,"religion,churches,interesting_places,catholic_churches",Rome,IT,41.895744,12.500443,3
Baths of Constantine,"historic,archaeology,interesting_places,baths_and_saunas,saunas,other_archaeological_sites,amusements",Rome,IT,41.89843,12.4879,3
Santa Maria d'Itria,"religion,churches,interesting_places,catholic_churches",Rome,IT,41.90308,12.485937,3
San Nicola in Arcione,"religion,churches,interesting_places,other_churches",Rome,IT,41.902332,12.485888,3
Monumento al Bersagliere,"historic,monuments_and_memorials,interesting_places,monuments",Rome,IT,41.90958,12.501715,2
Arco di Gallieno,"architecture,historic_architecture,historic,monuments_and_memorials,interesting_places,monuments,triumphal_archs",Rome,IT,41.895824,12.501305,3
Piazza di San Martino ai Monti,"religion,churches,urban_environment,cultural,interesting_places,catholic_churches,squares",Rome,IT,41.894962,12.497735,3
Santi Vito e Modesto,"religion,churches,interesting_places,catholic_churches",Rome,IT,41.89587,12.501553,3
Sepolcro del Giovinetto Quinto Sulpicio Massimo,"tumuluses,historic,monuments_and_memorials,burial_places,archaeology,interesting_places,other_archaeological_sites,monuments",Rome,IT,41.910576,12.498446,3
Arch of Gallienus,"architecture,historic_architecture,fortifications,defensive_walls,historic,interesting_places,destroyed_objects",Rome,IT,41.895782,12.501357,3
Torre dei Capocci,"towers,architecture,interesting_places,other_towers",Rome,IT,41.894894,12.497547,3
Porta Salutaris,"fortifications,historic,defensive_walls,interesting_places",Rome,IT,41.900902,12.486,2
Convento di Sant'Isidoro,"religion,churches,monasteries,interesting_places,other_churches",Rome,IT,41.906097,12.486643,3
San Giuseppe a Capo le Case,"religion,churches,interesting_places,other_churches",Rome,IT,41.904026,12.485806,3
Quirinal Palace,"palaces,architecture,historic_architecture,interesting_places",Rome,IT,41.900654,12.486032,3
Palazzo Rospigliosi-Pallavicini,"palaces,architecture,historic_architecture,cultural,museums,interesting_places,art_galleries",Rome,IT,41.898235,12.487502,3
Aqua Alexandrina,"historic,archaeology,interesting_places,other_archaeological_sites",Rome,IT,41.908169,12.504491,3
Complesso di via in Arcione,"historic,archaeology,interesting_places,other_archaeological_sites",Rome,IT,41.901863,12.485611,2
Monastero Agostiniano delle Suore di Santa Lucia in Selci,"religion,churches,monasteries,interesting_places,other_churches",Rome,IT,41.894707,12.496595,3
,"fortifications,defensive_walls,historic,interesting_places",Rome,IT,41.910793,12.498135,3
Fontana dei Dioscuri,"historic,urban_environment,natural_springs,natural,springs_others,fountains,monuments_and_memorials,cultural,interesting_places,monuments",Rome,IT,41.899117,12.486704,3
Monti,"historical_places,historic,interesting_places,historic_districts",Rome,IT,41.89608,12.490288,3
Casino Ludovisi,"palaces,architecture,historic_architecture,cultural,museums,interesting_places,other_museums",Rome,IT,41.907253,12.487224,2
Porta Clausa,"fortifications,historic,defensive_walls,interesting_places",Rome,IT,41.904381,12.50716,3
Obelisco del Quirinale,"historic,monuments_and_memorials,urban_environment,cultural,interesting_places,sculptures,monuments",Rome,IT,41.899063,12.486643,3
Aurelian Walls,"fortifications,defensive_walls,historic,archaeology,interesting_places,other_archaeological_sites",Rome,IT,41.902573,12.50741,3
Aurelian Walls,"fortifications,defensive_walls,historic,archaeology,interesting_places,other_archaeological_sites",Rome,IT,41.910797,12.493962,3
Palazzo della Consulta,"palaces,architecture,historic_architecture,interesting_places",Rome,IT,41.899197,12.486432,3
Palazzo Koch,"palaces,architecture,historic_architecture,interesting_places",Rome,IT,41.897343,12.488075,3
Sant'Agata dei Goti Church,"religion,churches,interesting_places,catholic_churches",Rome,IT,41.896427,12.489306,3
Piazza del Quirinale,"view_points,other,historic,monuments_and_memorials,urban_environment,cultural,interesting_places,sculptures,monuments",Rome,IT,41.899384,12.486271,3
Chiesa di Santa Lucia in Selci,"religion,churches,interesting_places,catholic_churches",Rome,IT,41.89452,12.496822,3
Esquiline Necropolis,"cemeteries,historic,archaeology,burial_places,interesting_places,necropolises,other_archaeological_sites",Rome,IT,41.895699,12.5022,3
Basilica di San Martino ai Monti,"religion,churches,interesting_places,catholic_churches",Rome,IT,41.894566,12.498271,3
San Salvatore de Cornutis,"religion,churches,interesting_places,other_churches",Rome,IT,41.898029,12.487083,3
Galleria d'arte moderna di Roma Capitale,"museums,cultural,interesting_places,art_galleries",Rome,IT,41.905888,12.485869,3
Santi Gioacchino e Anna ai Monti,"religion,churches,interesting_places,catholic_churches",Rome,IT,41.89455,12.493979,3
Horti Calyclani,"historic,archaeology,interesting_places,other_archaeological_sites",Rome,IT,41.896667,12.504222,2
Horti Tauriani,"historic,archaeology,interesting_places,other_archaeological_sites",Rome,IT,41.896667,12.504222,3
Magazzini di Lucio Nevio Clemente,"historic,archaeology,interesting_places,other_archaeological_sites",Rome,IT,41.896927,12.488219,3
Sant'Eusebio all'Esquilino,"religion,churches,interesting_places,catholic_churches",Rome,IT,41.896355,12.503797,3
San Giovanni in Carapullo,"religion,churches,interesting_places,other_churches",Rome,IT,41.894501,12.493944,3
Chiesa di San Marone,"religion,churches,interesting_places,other_churches",Rome,IT,41.907871,12.487195,3
Palazzo della Panetteria,"palaces,architecture,historic_architecture,interesting_places",Rome,IT,41.899971,12.485583,3
Santa Maria della Purificazione in Via Merulana,"religion,churches,interesting_places,other_churches",Rome,IT,41.894722,12.500222,3
Convento dei Carmelitani dei Santi Silvestro e Martino ai Monti,"religion,churches,monasteries,interesting_places,catholic_churches",Rome,IT,41.894325,12.498055,3
Aurelian Walls,"fortifications,defensive_walls,historic,archaeology,interesting_places,other_archaeological_sites",Rome,IT,41.901726,12.507838,3
Basilica di Santa Teresa d'Avila,"religion,churches,interesting_places,catholic_churches",Rome,IT,41.911366,12.494978,3
San Bernardino in Panisperna,"religion,churches,interesting_places,catholic_churches",Rome,IT,41.896004,12.489243,3
Santa Teresa dello Scalone,"religion,churches,interesting_places,other_churches",Rome,IT,41.900501,12.485194,3
sepolcro dei Sempronii,"historic,archaeology,interesting_places,other_archaeological_sites",Rome,IT,41.899796,12.48545,2
Harry's Bar,"historic,monuments_and_memorials,interesting_places,foods,bars,monuments,tourist_facilities",Rome,IT,41.909077,12.488319,3
Museum of pasta food,"museums,cultural,interesting_places,other_museums",Rome,IT,41.90089,12.485,2
San Giovanni della Ficozza,"religion,churches,interesting_places,other_churches",Rome,IT,41.902111,12.484722,3
santuario di Diana Planciana,"religion,other_temples,interesting_places",Rome,IT,41.897015,12.487556,2
Santi Sergio e Bacco in Suburra,"religion,cathedrals,churches,interesting_places,catholic_churches",Rome,IT,41.895073,12.490837,3
Scuderie del Quirinale,"cultural,museums,interesting_places,other_museums",Rome,IT,41.898655,12.485958,3
Palazzo Skanderbeg,"palaces,architecture,historic_architecture,interesting_places",Rome,IT,41.9007,12.4849,2
santuario di Semo Sancus Dius Fidius,"religion,other_temples,interesting_places",Rome,IT,41.897869,12.486581,2
Horti Pallantiani,"historic,archaeology,interesting_places,other_archaeological_sites",Rome,IT,41.8965,12.504694,2
Villa Aldobrandini,"gardens_and_parks,cultural,urban_environment,interesting_places",Rome,IT,41.896584,12.487982,2
chiesa di S. Silvestro al Quirinale,"religion,churches,interesting_places,other_churches",Rome,IT,41.897552,12.48686,2
Museo Nazionale delle Paste Alimentari,"museums,cultural,interesting_places,other_museums",Rome,IT,41.90078,12.484822,2
Maronite College in Rome,"religion,other_temples,interesting_places",Rome,IT,41.907425,12.486258,2
Santo Angelo Custode al Tritone,"religion,architecture,historic_architecture,churches,interesting_places,destroyed_objects,other_churches",Rome,IT,41.9025,12.484445,3
Piazza della Madonna dei Monti,"fountains,historic,monuments_and_memorials,urban_environment,cultural,interesting_places,sculptures,monuments",Rome,IT,41.894894,12.490883,3
San Giuliano all'Esquilino,"religion,architecture,historic_architecture,churches,interesting_places,destroyed_objects,other_churches",Rome,IT,41.895279,12.502833,3
"Palazzo Aeronautica, Rome","palaces,architecture,historic_architecture,interesting_places",Rome,IT,41.902237,12.508377,3
Porta Praetoria,"fortifications,defensive_walls,historic,interesting_places",Rome,IT,41.908379,12.505781,3
Porta Pinciana,"fortifications,defensive_walls,historic,interesting_places",Rome,IT,41.909454,12.488376,3
Fontana della Madonna dei Monti,"fountains,historic,monuments_and_memorials,urban_environment,cultural,interesting_places,sculptures,monuments",Rome,IT,41.894871,12.490845,3
Porta Magica,"architecture,historic_architecture,fortifications,defensive_walls,historic,interesting_places,destroyed_objects",Rome,IT,41.8955,12.503739,3
Santa Maria ai Monti,"religion,churches,interesting_places,catholic_churches",Rome,IT,41.894722,12.490587,3
Chiesa di San Silvestro al Quirinale,"religion,churches,interesting_places,catholic_churches",Rome,IT,41.897301,12.486547,3
La Fontana di Venere,"fountains,historic,monuments_and_memorials,urban_environment,cultural,interesting_places,restaurants,foods,sculptures,monuments,tourist_facilities",Rome,IT,41.900612,12.484436,3
Moses (Michelangelo),"historic,monuments_and_memorials,urban_environment,cultural,interesting_places,sculptures,monuments",Rome,IT,41.893883,12.493402,3
Porta Sanqualis,"fortifications,historic,defensive_walls,interesting_places",Rome,IT,41.897099,12.4867,2
Tomb of Pope Julius II,"historic,monuments_and_memorials,burial_places,interesting_places,other_burial_places,monuments",Rome,IT,41.89386,12.49342,3
Chiesa dei Santi Domenico e Sisto,"religion,churches,interesting_places,catholic_churches",Rome,IT,41.895885,12.488167,3
Saint Peter in Chains,"religion,churches,interesting_places,catholic_churches",Rome,IT,41.893852,12.493157,3
